{
"type": "FeatureCollection",
"crs": { "type": "name", "properties": { "name": "urn:ogc:def:crs:OGC:1.3:CRS84" } },
"features": [
{ "type": "Feature", "properties": { "venue_id": "b993e29a6166017d5590631c", "entity_nam": "H-E-B", "lat": 27.685060590810085, "lng": -97.388952622738941, "rank": 1.0, "totRank": null, "visitors": 380920.0, "visits": 2923134.0, "tot_vistr": 67219977.0, "tot_vis": 453659592.0, "totPop": 110289.0, "popDen": 4313.921139, "aveHHI": 85491.137065999996, "medHHI": 70333.413958042336 }, "geometry": { "type": "Point", "coordinates": [ -97.388952622738941, 27.685060590810085 ] } },
{ "type": "Feature", "properties": { "venue_id": "9d539584c48080f11a8e2e00", "entity_nam": "H-E-B", "lat": 29.353993144135988, "lng": -98.433664220168879, "rank": 2.0, "totRank": null, "visitors": 363556.0, "visits": 2822524.0, "tot_vistr": 67219977.0, "tot_vis": 453659592.0, "totPop": 151983.0, "popDen": 4246.518923, "aveHHI": 51484.157821000001, "medHHI": 40487.142773364205 }, "geometry": { "type": "Point", "coordinates": [ -98.433664220168879, 29.353993144135988 ] } },
{ "type": "Feature", "properties": { "venue_id": "f43460ea42aefb70c562c347", "entity_nam": "H-E-B", "lat": 29.554345806165269, "lng": -98.662783998415364, "rank": 3.0, "totRank": null, "visitors": 456353.0, "visits": 2812713.0, "tot_vistr": 67219977.0, "tot_vis": 453659592.0, "totPop": 191791.0, "popDen": 3715.600474, "aveHHI": 89723.5135, "medHHI": 75129.341398322416 }, "geometry": { "type": "Point", "coordinates": [ -98.662783998415364, 29.554345806165269 ] } },
{ "type": "Feature", "properties": { "venue_id": "f83b19f88fd51dcdccd28d3a", "entity_nam": "H-E-B", "lat": 31.522852940702027, "lng": -97.137253250116331, "rank": 4.0, "totRank": null, "visitors": 469613.0, "visits": 2794190.0, "tot_vistr": 67219977.0, "tot_vis": 453659592.0, "totPop": 141663.0, "popDen": 1671.486612, "aveHHI": 52887.943644, "medHHI": 38219.575008336717 }, "geometry": { "type": "Point", "coordinates": [ -97.137253250116331, 31.522852940702027 ] } },
{ "type": "Feature", "properties": { "venue_id": "822291e1a63acf46df3d9784", "entity_nam": "H-E-B", "lat": 29.360493699868002, "lng": -98.533007901045508, "rank": 5.0, "totRank": null, "visitors": 390565.0, "visits": 2781459.0, "tot_vistr": 67219977.0, "tot_vis": 453659592.0, "totPop": 185791.0, "popDen": 4893.620208, "aveHHI": 46750.427034, "medHHI": 37777.855359351117 }, "geometry": { "type": "Point", "coordinates": [ -98.533007901045508, 29.360493699868002 ] } },
{ "type": "Feature", "properties": { "venue_id": "d864a9b46f8d7d2e0f95fb86", "entity_nam": "H-E-B", "lat": 29.787651110478631, "lng": -95.532485979206228, "rank": 6.0, "totRank": null, "visitors": 498550.0, "visits": 2765920.0, "tot_vistr": 67219977.0, "tot_vis": 453659592.0, "totPop": 302402.0, "popDen": 4744.069126, "aveHHI": 119334.47689599999, "medHHI": 68883.572017343788 }, "geometry": { "type": "Point", "coordinates": [ -95.532485979206228, 29.787651110478631 ] } },
{ "type": "Feature", "properties": { "venue_id": "2953ade9a895eb035ccc470f", "entity_nam": "H-E-B", "lat": 29.379920417405707, "lng": -98.457954830804582, "rank": 7.0, "totRank": null, "visitors": 344458.0, "visits": 2654102.0, "tot_vistr": 67219977.0, "tot_vis": 453659592.0, "totPop": 115942.0, "popDen": 4948.92169, "aveHHI": 50656.999762, "medHHI": 36307.833146103316 }, "geometry": { "type": "Point", "coordinates": [ -98.457954830804582, 29.379920417405707 ] } },
{ "type": "Feature", "properties": { "venue_id": "846d05bb9d6a06f4392364c8", "entity_nam": "H-E-B", "lat": 25.949966835949148, "lng": -97.489251316753197, "rank": 8.0, "totRank": null, "visitors": 319360.0, "visits": 2642795.0, "tot_vistr": 67219977.0, "tot_vis": 453659592.0, "totPop": 109951.0, "popDen": 3296.150436, "aveHHI": 55967.171797000003, "medHHI": 41570.79506474729 }, "geometry": { "type": "Point", "coordinates": [ -97.489251316753197, 25.949966835949148 ] } },
{ "type": "Feature", "properties": { "venue_id": "b7821c696a9a9bf53b9b9955", "entity_nam": "H-E-B", "lat": 29.481951223843801, "lng": -98.594537552700984, "rank": 9.0, "totRank": null, "visitors": 368343.0, "visits": 2622551.0, "tot_vistr": 67219977.0, "tot_vis": 453659592.0, "totPop": 114524.0, "popDen": 5210.990321, "aveHHI": 56418.151755, "medHHI": 42591.059414700314 }, "geometry": { "type": "Point", "coordinates": [ -98.594537552700984, 29.481951223843801 ] } },
{ "type": "Feature", "properties": { "venue_id": "ea5ebac9a57543ea2facc80c", "entity_nam": "H-E-B", "lat": 29.807373937661971, "lng": -95.409188497536888, "rank": 10.0, "totRank": null, "visitors": 433558.0, "visits": 2569966.0, "tot_vistr": 67219977.0, "tot_vis": 453659592.0, "totPop": 288880.0, "popDen": 5231.395925, "aveHHI": 97355.087681000005, "medHHI": 57154.94730031136 }, "geometry": { "type": "Point", "coordinates": [ -95.409188497536888, 29.807373937661971 ] } },
{ "type": "Feature", "properties": { "venue_id": "caab085f1785eccdb89a2205", "entity_nam": "H-E-B", "lat": 30.106610016128322, "lng": -94.170428406136708, "rank": 11.0, "totRank": null, "visitors": 335843.0, "visits": 2559066.0, "tot_vistr": 67219977.0, "tot_vis": 453659592.0, "totPop": 110687.0, "popDen": 1728.703064, "aveHHI": 73855.355377999993, "medHHI": 53465.77581406635 }, "geometry": { "type": "Point", "coordinates": [ -94.170428406136708, 30.106610016128322 ] } },
{ "type": "Feature", "properties": { "venue_id": "27b7dceb103bc5aca1b80765", "entity_nam": "H-E-B", "lat": 29.597047777995751, "lng": -98.277533984693676, "rank": 12.0, "totRank": null, "visitors": 364529.0, "visits": 2531000.0, "tot_vistr": 67219977.0, "tot_vis": 453659592.0, "totPop": 120569.0, "popDen": 2558.597099, "aveHHI": 92970.57778000001, "medHHI": 80476.714254900086 }, "geometry": { "type": "Point", "coordinates": [ -98.277533984693676, 29.597047777995751 ] } },
{ "type": "Feature", "properties": { "venue_id": "d24e5bbc6d5333f7c556f8dc", "entity_nam": "H-E-B", "lat": 33.489064154062547, "lng": -101.90609469667956, "rank": 13.0, "totRank": null, "visitors": 542520.0, "visits": 2509149.0, "tot_vistr": 67219977.0, "tot_vis": 453659592.0, "totPop": 228076.0, "popDen": 1050.786765, "aveHHI": 70454.554034000001, "medHHI": 50809.680017923165 }, "geometry": { "type": "Point", "coordinates": [ -101.90609469667956, 33.489064154062547 ] } },
{ "type": "Feature", "properties": { "venue_id": "4b6ce905add68abb9d61a8d4", "entity_nam": "H-E-B", "lat": 26.183752135710836, "lng": -97.713525371290132, "rank": 14.0, "totRank": null, "visitors": 316525.0, "visits": 2488441.0, "tot_vistr": 67219977.0, "tot_vis": 453659592.0, "totPop": 104000.0, "popDen": 1141.222893, "aveHHI": 54872.196056000001, "medHHI": 37820.82005180078 }, "geometry": { "type": "Point", "coordinates": [ -97.713525371290132, 26.183752135710836 ] } },
{ "type": "Feature", "properties": { "venue_id": "3d03e57686594d3e67246293", "entity_nam": "H-E-B", "lat": 28.851737914055192, "lng": -96.994993239469281, "rank": 15.0, "totRank": null, "visitors": 266528.0, "visits": 2444226.0, "tot_vistr": 67219977.0, "tot_vis": 453659592.0, "totPop": 71353.0, "popDen": 1262.775337, "aveHHI": 75810.741372999997, "medHHI": 53375.813444928892 }, "geometry": { "type": "Point", "coordinates": [ -96.994993239469281, 28.851737914055192 ] } },
{ "type": "Feature", "properties": { "venue_id": "d96c1106287bf4459c60688c", "entity_nam": "H-E-B", "lat": 26.19806138661794, "lng": -98.286066258542391, "rank": 16.0, "totRank": null, "visitors": 383604.0, "visits": 2439235.0, "tot_vistr": 67219977.0, "tot_vis": 453659592.0, "totPop": 141845.0, "popDen": 2049.068353, "aveHHI": 63446.105191000002, "medHHI": 41720.77881635182 }, "geometry": { "type": "Point", "coordinates": [ -98.286066258542391, 26.19806138661794 ] } },
{ "type": "Feature", "properties": { "venue_id": "18019c04e6820171f1a37b35", "entity_nam": "H-E-B", "lat": 29.546008794339954, "lng": -98.311834335546635, "rank": 17.0, "totRank": null, "visitors": 310700.0, "visits": 2425923.0, "tot_vistr": 67219977.0, "tot_vis": 453659592.0, "totPop": 110068.0, "popDen": 3526.445084, "aveHHI": 76371.795161000002, "medHHI": 63520.272299388671 }, "geometry": { "type": "Point", "coordinates": [ -98.311834335546635, 29.546008794339954 ] } },
{ "type": "Feature", "properties": { "venue_id": "8c4616439458209e7271ccbf", "entity_nam": "H-E-B", "lat": 29.698471663904613, "lng": -95.294899020784399, "rank": 18.0, "totRank": null, "visitors": 424087.0, "visits": 2419627.0, "tot_vistr": 67219977.0, "tot_vis": 453659592.0, "totPop": 187233.0, "popDen": 5231.587953, "aveHHI": 51263.38741, "medHHI": 38451.314549320407 }, "geometry": { "type": "Point", "coordinates": [ -95.294899020784399, 29.698471663904613 ] } },
{ "type": "Feature", "properties": { "venue_id": "d4810f0717e972bc7748f641", "entity_nam": "H-E-B", "lat": 30.583336326201575, "lng": -96.321490391900639, "rank": 19.0, "totRank": null, "visitors": 397371.0, "visits": 2391382.0, "tot_vistr": 67219977.0, "tot_vis": 453659592.0, "totPop": 103971.0, "popDen": 3351.458631, "aveHHI": 57271.202651, "medHHI": 36819.420833666605 }, "geometry": { "type": "Point", "coordinates": [ -96.321490391900639, 30.583336326201575 ] } },
{ "type": "Feature", "properties": { "venue_id": "94806932b57b3e818f840407", "entity_nam": "H-E-B", "lat": 29.731827362301978, "lng": -98.077404218772571, "rank": 20.0, "totRank": null, "visitors": 463846.0, "visits": 2366193.0, "tot_vistr": 67219977.0, "tot_vis": 453659592.0, "totPop": 108896.0, "popDen": 1056.687135, "aveHHI": 82390.237146, "medHHI": 60724.263278386599 }, "geometry": { "type": "Point", "coordinates": [ -98.077404218772571, 29.731827362301978 ] } },
{ "type": "Feature", "properties": { "venue_id": "ed5caefb39c9b01ca320780e", "entity_nam": "H-E-B", "lat": 26.17886130692694, "lng": -98.18948795278682, "rank": 21.0, "totRank": null, "visitors": 263889.0, "visits": 2359334.0, "tot_vistr": 67219977.0, "tot_vis": 453659592.0, "totPop": 87007.0, "popDen": 2163.535959, "aveHHI": 54317.802097, "medHHI": 40458.400574738756 }, "geometry": { "type": "Point", "coordinates": [ -98.18948795278682, 26.17886130692694 ] } },
{ "type": "Feature", "properties": { "venue_id": "2837d474d1c97cdb11c843b0", "entity_nam": "H-E-B", "lat": 29.594969377845615, "lng": -98.417789922458667, "rank": 22.0, "totRank": null, "visitors": 298560.0, "visits": 2343908.0, "tot_vistr": 67219977.0, "tot_vis": 453659592.0, "totPop": 122130.0, "popDen": 2374.44395, "aveHHI": 88091.331061000004, "medHHI": 73517.4235551569 }, "geometry": { "type": "Point", "coordinates": [ -98.417789922458667, 29.594969377845615 ] } },
{ "type": "Feature", "properties": { "venue_id": "61dfe13e384f7212f58aa870", "entity_nam": "H-E-B", "lat": 29.552626434743502, "lng": -95.148741309499442, "rank": 23.0, "totRank": null, "visitors": 483853.0, "visits": 2312914.0, "tot_vistr": 67219977.0, "tot_vis": 453659592.0, "totPop": 378778.0, "popDen": 3541.551787, "aveHHI": 88131.970050999997, "medHHI": 67694.783840630334 }, "geometry": { "type": "Point", "coordinates": [ -95.148741309499442, 29.552626434743502 ] } },
{ "type": "Feature", "properties": { "venue_id": "2e4f5ed086cfcefb7f83ae3c", "entity_nam": "H-E-B", "lat": 29.963332674475971, "lng": -93.974857403776099, "rank": 24.0, "totRank": null, "visitors": 253030.0, "visits": 2305800.0, "tot_vistr": 67219977.0, "tot_vis": 453659592.0, "totPop": 80416.0, "popDen": 2268.546145, "aveHHI": 75114.670232999997, "medHHI": 55972.223986618803 }, "geometry": { "type": "Point", "coordinates": [ -93.974857403776099, 29.963332674475971 ] } },
{ "type": "Feature", "properties": { "venue_id": "5f23de63c51f493b443bda41", "entity_nam": "H-E-B", "lat": 30.168817570762634, "lng": -97.78707154443704, "rank": 25.0, "totRank": null, "visitors": 360886.0, "visits": 2296351.0, "tot_vistr": 67219977.0, "tot_vis": 453659592.0, "totPop": 158193.0, "popDen": 4074.114727, "aveHHI": 73987.192582999996, "medHHI": 59445.201957067402 }, "geometry": { "type": "Point", "coordinates": [ -97.78707154443704, 30.168817570762634 ] } },
{ "type": "Feature", "properties": { "venue_id": "552e869d04b9a8fe5a99ed4b", "entity_nam": "H-E-B", "lat": 32.411961653800304, "lng": -96.839865764245332, "rank": 26.0, "totRank": null, "visitors": 368299.0, "visits": 2273392.0, "tot_vistr": 67219977.0, "tot_vis": 453659592.0, "totPop": 274266.0, "popDen": 1079.096224, "aveHHI": 81790.547231000004, "medHHI": 65656.773603005888 }, "geometry": { "type": "Point", "coordinates": [ -96.839865764245332, 32.411961653800304 ] } },
{ "type": "Feature", "properties": { "venue_id": "840e051cfd960c767967551d", "entity_nam": "H-E-B", "lat": 29.420091587692959, "lng": -98.652610282175246, "rank": 27.0, "totRank": null, "visitors": 319738.0, "visits": 2270983.0, "tot_vistr": 67219977.0, "tot_vis": 453659592.0, "totPop": 130220.0, "popDen": 4714.457658, "aveHHI": 62761.812996000001, "medHHI": 50593.798745798689 }, "geometry": { "type": "Point", "coordinates": [ -98.652610282175246, 29.420091587692959 ] } },
{ "type": "Feature", "properties": { "venue_id": "af1ca89c45cd58326bda9737", "entity_nam": "H-E-B", "lat": 29.55924938248333, "lng": -95.390348869206107, "rank": 28.0, "totRank": null, "visitors": 415869.0, "visits": 2200952.0, "tot_vistr": 67219977.0, "tot_vis": 453659592.0, "totPop": 267880.0, "popDen": 2180.833199, "aveHHI": 90681.403185999996, "medHHI": 72357.387035340435 }, "geometry": { "type": "Point", "coordinates": [ -95.390348869206107, 29.55924938248333 ] } },
{ "type": "Feature", "properties": { "venue_id": "8c5b832adc4b866cc7887d16", "entity_nam": "H-E-B", "lat": 29.357963750163425, "lng": -98.502385077891844, "rank": 29.0, "totRank": null, "visitors": 284486.0, "visits": 2188893.0, "tot_vistr": 67219977.0, "tot_vis": 453659592.0, "totPop": 120444.0, "popDen": 5391.142131, "aveHHI": 49157.863292000002, "medHHI": 39776.720731546855 }, "geometry": { "type": "Point", "coordinates": [ -98.502385077891844, 29.357963750163425 ] } },
{ "type": "Feature", "properties": { "venue_id": "fcd75bd1d0c79dd28efbec1a", "entity_nam": "H-E-B", "lat": 29.601783681477446, "lng": -95.250134906915036, "rank": 30.0, "totRank": null, "visitors": 302290.0, "visits": 2182070.0, "tot_vistr": 67219977.0, "tot_vis": 453659592.0, "totPop": 161312.0, "popDen": 4157.481584, "aveHHI": 71541.346172999998, "medHHI": 58654.474220076598 }, "geometry": { "type": "Point", "coordinates": [ -95.250134906915036, 29.601783681477446 ] } },
{ "type": "Feature", "properties": { "venue_id": "2000c62c0e2bc3cd03934760", "entity_nam": "H-E-B", "lat": 30.110203874808409, "lng": -97.334479737348389, "rank": 31.0, "totRank": null, "visitors": 253730.0, "visits": 2181502.0, "tot_vistr": 67219977.0, "tot_vis": 453659592.0, "totPop": 95280.0, "popDen": 344.323566, "aveHHI": 73621.881095999997, "medHHI": 55387.571789613896 }, "geometry": { "type": "Point", "coordinates": [ -97.334479737348389, 30.110203874808409 ] } },
{ "type": "Feature", "properties": { "venue_id": "87ea7622b4605452eb9176e1", "entity_nam": "H-E-B", "lat": 32.520487045290544, "lng": -97.351960288223552, "rank": 32.0, "totRank": null, "visitors": 414251.0, "visits": 2153777.0, "tot_vistr": 67219977.0, "tot_vis": 453659592.0, "totPop": 364446.0, "popDen": 1992.921038, "aveHHI": 76199.734587, "medHHI": 60152.101928784956 }, "geometry": { "type": "Point", "coordinates": [ -97.351960288223552, 32.520487045290544 ] } },
{ "type": "Feature", "properties": { "venue_id": "ec859590c4e21f68b8289384", "entity_nam": "H-E-B", "lat": 29.688405025852962, "lng": -95.464163255014853, "rank": 33.0, "totRank": null, "visitors": 376759.0, "visits": 2152303.0, "tot_vistr": 67219977.0, "tot_vis": 453659592.0, "totPop": 247520.0, "popDen": 7322.149298, "aveHHI": 89282.460286000001, "medHHI": 52515.272842744351 }, "geometry": { "type": "Point", "coordinates": [ -95.464163255014853, 29.688405025852962 ] } },
{ "type": "Feature", "properties": { "venue_id": "15475d346b2e18247e2e8eae", "entity_nam": "H-E-B", "lat": 27.665039445890173, "lng": -97.280788313137464, "rank": 34.0, "totRank": null, "visitors": 420036.0, "visits": 2144827.0, "tot_vistr": 67219977.0, "tot_vis": 453659592.0, "totPop": 40252.0, "popDen": 993.548996, "aveHHI": 79817.269925999994, "medHHI": 61567.826878807646 }, "geometry": { "type": "Point", "coordinates": [ -97.280788313137464, 27.665039445890173 ] } },
{ "type": "Feature", "properties": { "venue_id": "76bf9836f044c2865e95f60d", "entity_nam": "H-E-B", "lat": 26.202697778354356, "lng": -98.164652205437264, "rank": 35.0, "totRank": null, "visitors": 309173.0, "visits": 2117389.0, "tot_vistr": 67219977.0, "tot_vis": 453659592.0, "totPop": 114771.0, "popDen": 3440.703416, "aveHHI": 51006.501517999997, "medHHI": 38777.143499130412 }, "geometry": { "type": "Point", "coordinates": [ -98.164652205437264, 26.202697778354356 ] } },
{ "type": "Feature", "properties": { "venue_id": "fdc11bc14f2242ce946899ca", "entity_nam": "H-E-B", "lat": 30.236599327534282, "lng": -97.722115500022696, "rank": 36.0, "totRank": null, "visitors": 298293.0, "visits": 2091818.0, "tot_vistr": 67219977.0, "tot_vis": 453659592.0, "totPop": 99138.0, "popDen": 2440.677939, "aveHHI": 79261.656730999995, "medHHI": 54912.8571585549 }, "geometry": { "type": "Point", "coordinates": [ -97.722115500022696, 30.236599327534282 ] } },
{ "type": "Feature", "properties": { "venue_id": "a9cdfe81785ea0a0046cca70", "entity_nam": "H-E-B", "lat": 29.570688285233938, "lng": -97.944649666288555, "rank": 37.0, "totRank": null, "visitors": 221063.0, "visits": 2082586.0, "tot_vistr": 67219977.0, "tot_vis": 453659592.0, "totPop": 53852.0, "popDen": 305.806608, "aveHHI": 72193.94101, "medHHI": 55435.976565121397 }, "geometry": { "type": "Point", "coordinates": [ -97.944649666288555, 29.570688285233938 ] } },
{ "type": "Feature", "properties": { "venue_id": "db5a9985a27a6838999d8214", "entity_nam": "H-E-B", "lat": 29.433621058598863, "lng": -98.703417371476036, "rank": 38.0, "totRank": null, "visitors": 333807.0, "visits": 2078928.0, "tot_vistr": 67219977.0, "tot_vis": 453659592.0, "totPop": 128750.0, "popDen": 4052.256178, "aveHHI": 77546.468771999993, "medHHI": 68078.820265015238 }, "geometry": { "type": "Point", "coordinates": [ -98.703417371476036, 29.433621058598863 ] } },
{ "type": "Feature", "properties": { "venue_id": "831100c5efafaa28fc0e62ed", "entity_nam": "H-E-B", "lat": 27.607544312192402, "lng": -99.473832655388179, "rank": 39.0, "totRank": null, "visitors": 280752.0, "visits": 2076753.0, "tot_vistr": 67219977.0, "tot_vis": 453659592.0, "totPop": 129883.0, "popDen": 2264.745839, "aveHHI": 76340.621683000005, "medHHI": 57898.945369391971 }, "geometry": { "type": "Point", "coordinates": [ -99.473832655388179, 27.607544312192402 ] } },
{ "type": "Feature", "properties": { "venue_id": "4437a380b543e99cad6b4bb0", "entity_nam": "H-E-B", "lat": 27.477042966897454, "lng": -99.47573455459478, "rank": 40.0, "totRank": null, "visitors": 188070.0, "visits": 2075081.0, "tot_vistr": 67219977.0, "tot_vis": 453659592.0, "totPop": 77476.0, "popDen": 1928.470211, "aveHHI": 48251.570568000003, "medHHI": 36190.244405894009 }, "geometry": { "type": "Point", "coordinates": [ -99.47573455459478, 27.477042966897454 ] } },
{ "type": "Feature", "properties": { "venue_id": "6af8989bbac84cb03a5250ff", "entity_nam": "H-E-B", "lat": 29.558144074483458, "lng": -95.265026756485042, "rank": 41.0, "totRank": null, "visitors": 279871.0, "visits": 2049433.0, "tot_vistr": 67219977.0, "tot_vis": 453659592.0, "totPop": 122641.0, "popDen": 2797.529001, "aveHHI": 106915.889673, "medHHI": 91682.383013228056 }, "geometry": { "type": "Point", "coordinates": [ -95.265026756485042, 29.558144074483458 ] } },
{ "type": "Feature", "properties": { "venue_id": "c8d5b7a702cd12a0dce7beb6", "entity_nam": "H-E-B", "lat": 31.995679667884069, "lng": -102.1554397458726, "rank": 42.0, "totRank": null, "visitors": 361783.0, "visits": 2018229.0, "tot_vistr": 67219977.0, "tot_vis": 453659592.0, "totPop": 134699.0, "popDen": 2083.031494, "aveHHI": 102664.070473, "medHHI": 75178.04621645411 }, "geometry": { "type": "Point", "coordinates": [ -102.155439745872599, 31.995679667884069 ] } },
{ "type": "Feature", "properties": { "venue_id": "601ba76e9ef1ec58e9fba0e7", "entity_nam": "H-E-B", "lat": 29.5266609845498, "lng": -98.603623588327807, "rank": 43.0, "totRank": null, "visitors": 240188.0, "visits": 2014009.0, "tot_vistr": 67219977.0, "tot_vis": 453659592.0, "totPop": 76890.0, "popDen": 6119.986679, "aveHHI": 68429.780417999995, "medHHI": 54416.754158262396 }, "geometry": { "type": "Point", "coordinates": [ -98.603623588327807, 29.5266609845498 ] } },
{ "type": "Feature", "properties": { "venue_id": "75170ac2adf4ba1e3ea14eb7", "entity_nam": "H-E-B", "lat": 32.433379135832197, "lng": -99.757785207098649, "rank": 44.0, "totRank": null, "visitors": 286053.0, "visits": 2010812.0, "tot_vistr": 67219977.0, "tot_vis": 453659592.0, "totPop": 96183.0, "popDen": 1684.967974, "aveHHI": 65888.204064999998, "medHHI": 48798.638347892753 }, "geometry": { "type": "Point", "coordinates": [ -99.757785207098649, 32.433379135832197 ] } },
{ "type": "Feature", "properties": { "venue_id": "3abf7b15f20226719e4021a8", "entity_nam": "H-E-B", "lat": 30.050676025195301, "lng": -99.143208632678679, "rank": 45.0, "totRank": null, "visitors": 221681.0, "visits": 2009526.0, "tot_vistr": 67219977.0, "tot_vis": 453659592.0, "totPop": 38142.0, "popDen": 653.069766, "aveHHI": 69277.72569000001, "medHHI": 51634.949300307955 }, "geometry": { "type": "Point", "coordinates": [ -99.143208632678679, 30.050676025195301 ] } },
{ "type": "Feature", "properties": { "venue_id": "d517bb4ec86adabed9e630d0", "entity_nam": "H-E-B", "lat": 29.641175368331552, "lng": -98.457429990872399, "rank": 46.0, "totRank": null, "visitors": 300649.0, "visits": 2009280.0, "tot_vistr": 67219977.0, "tot_vis": 453659592.0, "totPop": 98927.0, "popDen": 2071.609282, "aveHHI": 111358.514565, "medHHI": 89120.513377638592 }, "geometry": { "type": "Point", "coordinates": [ -98.457429990872399, 29.641175368331552 ] } },
{ "type": "Feature", "properties": { "venue_id": "bfa393e061efa4ee589e91f0", "entity_nam": "H-E-B", "lat": 28.710560268214032, "lng": -100.48490196000286, "rank": 47.0, "totRank": null, "visitors": 172220.0, "visits": 2005703.0, "tot_vistr": 67219977.0, "tot_vis": 453659592.0, "totPop": 47078.0, "popDen": 884.8572, "aveHHI": 51472.329068, "medHHI": 37993.609267921245 }, "geometry": { "type": "Point", "coordinates": [ -100.484901960002858, 28.710560268214032 ] } },
{ "type": "Feature", "properties": { "venue_id": "66ebff36d288496e40614f3f", "entity_nam": "H-E-B", "lat": 30.053101104630954, "lng": -95.183620474026711, "rank": 48.0, "totRank": null, "visitors": 218768.0, "visits": 1994144.0, "tot_vistr": 67219977.0, "tot_vis": 453659592.0, "totPop": 59526.0, "popDen": 2339.534344, "aveHHI": 143057.407962, "medHHI": 108631.95562160558 }, "geometry": { "type": "Point", "coordinates": [ -95.183620474026711, 30.053101104630954 ] } },
{ "type": "Feature", "properties": { "venue_id": "cc06218d54e6593021a9111d", "entity_nam": "H-E-B", "lat": 29.379961601383023, "lng": -98.636648655354108, "rank": 49.0, "totRank": null, "visitors": 255578.0, "visits": 1993410.0, "tot_vistr": 67219977.0, "tot_vis": 453659592.0, "totPop": 81995.0, "popDen": 3467.333212, "aveHHI": 56462.69791, "medHHI": 44126.421209452637 }, "geometry": { "type": "Point", "coordinates": [ -98.636648655354108, 29.379961601383023 ] } },
{ "type": "Feature", "properties": { "venue_id": "5a0271a904766dbb0812d9c1", "entity_nam": "H-E-B", "lat": 29.531436508225362, "lng": -98.559922022835636, "rank": 50.0, "totRank": null, "visitors": 345519.0, "visits": 1980254.0, "tot_vistr": 67219977.0, "tot_vis": 453659592.0, "totPop": 149405.0, "popDen": 6450.164469, "aveHHI": 57788.068503000002, "medHHI": 45191.77728176958 }, "geometry": { "type": "Point", "coordinates": [ -98.559922022835636, 29.531436508225362 ] } },
{ "type": "Feature", "properties": { "venue_id": "65b00c41995333df131e86ba", "entity_nam": "H-E-B", "lat": 31.891358979114166, "lng": -102.35101864100001, "rank": 51.0, "totRank": null, "visitors": 278347.0, "visits": 1967357.0, "tot_vistr": 67219977.0, "tot_vis": 453659592.0, "totPop": 105320.0, "popDen": 2548.874224, "aveHHI": 87330.129184999998, "medHHI": 65631.854830396711 }, "geometry": { "type": "Point", "coordinates": [ -102.35101864100001, 31.891358979114166 ] } },
{ "type": "Feature", "properties": { "venue_id": "94376fc759cc534494fc48d4", "entity_nam": "H-E-B", "lat": 26.266285644630045, "lng": -98.218359512043747, "rank": 52.0, "totRank": null, "visitors": 343919.0, "visits": 1963545.0, "tot_vistr": 67219977.0, "tot_vis": 453659592.0, "totPop": 172634.0, "popDen": 3225.884755, "aveHHI": 71344.035117000007, "medHHI": 52852.398241050672 }, "geometry": { "type": "Point", "coordinates": [ -98.218359512043747, 26.266285644630045 ] } },
{ "type": "Feature", "properties": { "venue_id": "31bfb37d918e903e3b7d2b33", "entity_nam": "H-E-B", "lat": 31.495093118205396, "lng": -97.221920173061491, "rank": 53.0, "totRank": null, "visitors": 234262.0, "visits": 1961164.0, "tot_vistr": 67219977.0, "tot_vis": 453659592.0, "totPop": 93119.0, "popDen": 607.764446, "aveHHI": 73974.864226999998, "medHHI": 53531.838792089373 }, "geometry": { "type": "Point", "coordinates": [ -97.221920173061491, 31.495093118205396 ] } },
{ "type": "Feature", "properties": { "venue_id": "e62e8253dcc82d6baf4834d9", "entity_nam": "H-E-B", "lat": 26.143699520067532, "lng": -97.63699396309967, "rank": 54.0, "totRank": null, "visitors": 179955.0, "visits": 1959175.0, "tot_vistr": 67219977.0, "tot_vis": 453659592.0, "totPop": 47790.0, "popDen": 1130.225827, "aveHHI": 50525.984526, "medHHI": 33022.754906303329 }, "geometry": { "type": "Point", "coordinates": [ -97.63699396309967, 26.143699520067532 ] } },
{ "type": "Feature", "properties": { "venue_id": "317ec53ad0675fb996b314ff", "entity_nam": "H-E-B", "lat": 30.722752795630765, "lng": -95.560489107026456, "rank": 55.0, "totRank": null, "visitors": 258391.0, "visits": 1933569.0, "tot_vistr": 67219977.0, "tot_vis": 453659592.0, "totPop": 68722.0, "popDen": 226.43844, "aveHHI": 61727.188072999998, "medHHI": 48229.955377608319 }, "geometry": { "type": "Point", "coordinates": [ -95.560489107026456, 30.722752795630765 ] } },
{ "type": "Feature", "properties": { "venue_id": "b449ffa244a7730457168109", "entity_nam": "H-E-B", "lat": 27.846245828944582, "lng": -97.584675854541743, "rank": 56.0, "totRank": null, "visitors": 199818.0, "visits": 1932061.0, "tot_vistr": 67219977.0, "tot_vis": 453659592.0, "totPop": 58461.0, "popDen": 1005.74759, "aveHHI": 69369.201174000002, "medHHI": 53606.059748965563 }, "geometry": { "type": "Point", "coordinates": [ -97.584675854541743, 27.846245828944582 ] } },
{ "type": "Feature", "properties": { "venue_id": "6074165c0757b29502e67c08", "entity_nam": "H-E-B", "lat": 31.080431802936651, "lng": -97.454592820845548, "rank": 57.0, "totRank": null, "visitors": 230574.0, "visits": 1929847.0, "tot_vistr": 67219977.0, "tot_vis": 453659592.0, "totPop": 100574.0, "popDen": 837.996839, "aveHHI": 82951.810255000004, "medHHI": 62844.891471814175 }, "geometry": { "type": "Point", "coordinates": [ -97.454592820845548, 31.080431802936651 ] } },
{ "type": "Feature", "properties": { "venue_id": "c9a5b168ad75f7fecbad6980", "entity_nam": "H-E-B", "lat": 29.041380724562046, "lng": -95.44598199175276, "rank": 58.0, "totRank": null, "visitors": 242644.0, "visits": 1920568.0, "tot_vistr": 67219977.0, "tot_vis": 453659592.0, "totPop": 73282.0, "popDen": 505.631999, "aveHHI": 85055.053132999994, "medHHI": 66116.844625509708 }, "geometry": { "type": "Point", "coordinates": [ -95.44598199175276, 29.041380724562046 ] } },
{ "type": "Feature", "properties": { "venue_id": "a5697ed9be51c70399ec6913", "entity_nam": "H-E-B", "lat": 26.25558228247003, "lng": -98.317924533118344, "rank": 59.0, "totRank": null, "visitors": 234860.0, "visits": 1915135.0, "tot_vistr": 67219977.0, "tot_vis": 453659592.0, "totPop": 93397.0, "popDen": 825.361701, "aveHHI": 50606.512012, "medHHI": 33704.578254641317 }, "geometry": { "type": "Point", "coordinates": [ -98.317924533118344, 26.25558228247003 ] } },
{ "type": "Feature", "properties": { "venue_id": "9381cc9d7535f2fecd568c24", "entity_nam": "H-E-B", "lat": 30.01638406889834, "lng": -97.861435372774892, "rank": 60.0, "totRank": null, "visitors": 288282.0, "visits": 1907379.0, "tot_vistr": 67219977.0, "tot_vis": 453659592.0, "totPop": 93040.0, "popDen": 1846.676363, "aveHHI": 82598.25917, "medHHI": 69061.863529491035 }, "geometry": { "type": "Point", "coordinates": [ -97.861435372774892, 30.01638406889834 ] } },
{ "type": "Feature", "properties": { "venue_id": "87610e91325ffcaa39615e64", "entity_nam": "H-E-B", "lat": 27.75268906553304, "lng": -98.063148758753272, "rank": 61.0, "totRank": null, "visitors": 132843.0, "visits": 1901136.0, "tot_vistr": 67219977.0, "tot_vis": 453659592.0, "totPop": 30207.0, "popDen": 67.39484, "aveHHI": 53713.240622999998, "medHHI": 36367.646228517362 }, "geometry": { "type": "Point", "coordinates": [ -98.063148758753272, 27.75268906553304 ] } },
{ "type": "Feature", "properties": { "venue_id": "4f32074a3d87d7d810bf3839", "entity_nam": "H-E-B", "lat": 29.713951592701235, "lng": -95.376851629790877, "rank": 62.0, "totRank": null, "visitors": 363419.0, "visits": 1894512.0, "tot_vistr": 67219977.0, "tot_vis": 453659592.0, "totPop": 293426.0, "popDen": 5160.667822, "aveHHI": 76567.11582000001, "medHHI": 52281.862060527732 }, "geometry": { "type": "Point", "coordinates": [ -95.376851629790877, 29.713951592701235 ] } },
{ "type": "Feature", "properties": { "venue_id": "745752bb2a9dcef045908e51", "entity_nam": "H-E-B", "lat": 27.766961455876558, "lng": -97.421701984806646, "rank": 63.0, "totRank": null, "visitors": 194699.0, "visits": 1855746.0, "tot_vistr": 67219977.0, "tot_vis": 453659592.0, "totPop": 55158.0, "popDen": 5377.945655, "aveHHI": 44843.737056999998, "medHHI": 33166.974023975949 }, "geometry": { "type": "Point", "coordinates": [ -97.421701984806646, 27.766961455876558 ] } },
{ "type": "Feature", "properties": { "venue_id": "cf4cf1df2a6b06a384ca775b", "entity_nam": "H-E-B", "lat": 29.606291977653633, "lng": -98.510697714434826, "rank": 64.0, "totRank": null, "visitors": 300236.0, "visits": 1852507.0, "tot_vistr": 67219977.0, "tot_vis": 453659592.0, "totPop": 92140.0, "popDen": 3338.661529, "aveHHI": 113308.82515800001, "medHHI": 80295.832237366601 }, "geometry": { "type": "Point", "coordinates": [ -98.510697714434826, 29.606291977653633 ] } },
{ "type": "Feature", "properties": { "venue_id": "c68fd4c1bb2cfd806ce90f4f", "entity_nam": "H-E-B", "lat": 29.56200592588543, "lng": -98.588065026424573, "rank": 65.0, "totRank": null, "visitors": 375478.0, "visits": 1844556.0, "tot_vistr": 67219977.0, "tot_vis": 453659592.0, "totPop": 177521.0, "popDen": 5060.026865, "aveHHI": 69583.390299000006, "medHHI": 55649.424041533493 }, "geometry": { "type": "Point", "coordinates": [ -98.588065026424573, 29.56200592588543 ] } },
{ "type": "Feature", "properties": { "venue_id": "509e98e0d7d53919c66270d5", "entity_nam": "H-E-B", "lat": 29.691074564866952, "lng": -95.559805923822992, "rank": 66.0, "totRank": null, "visitors": 334080.0, "visits": 1841690.0, "tot_vistr": 67219977.0, "tot_vis": 453659592.0, "totPop": 223596.0, "popDen": 9357.975733, "aveHHI": 49056.614488, "medHHI": 35799.122137261023 }, "geometry": { "type": "Point", "coordinates": [ -95.559805923822992, 29.691074564866952 ] } },
{ "type": "Feature", "properties": { "venue_id": "8a2b0ab8b463231c2737f03c", "entity_nam": "H-E-B", "lat": 29.887361222025191, "lng": -97.926323189902575, "rank": 67.0, "totRank": null, "visitors": 301428.0, "visits": 1827671.0, "tot_vistr": 67219977.0, "tot_vis": 453659592.0, "totPop": 69575.0, "popDen": 1907.310496, "aveHHI": 58854.741036, "medHHI": 42691.023404921303 }, "geometry": { "type": "Point", "coordinates": [ -97.926323189902575, 29.887361222025191 ] } },
{ "type": "Feature", "properties": { "venue_id": "fcdaa2b3b7703aae0c8e8d51", "entity_nam": "H-E-B", "lat": 30.519459541851468, "lng": -97.658717812154109, "rank": 68.0, "totRank": null, "visitors": 283254.0, "visits": 1823281.0, "tot_vistr": 67219977.0, "tot_vis": 453659592.0, "totPop": 104403.0, "popDen": 3481.492732, "aveHHI": 84499.083146000004, "medHHI": 72791.108265495903 }, "geometry": { "type": "Point", "coordinates": [ -97.658717812154109, 30.519459541851468 ] } },
{ "type": "Feature", "properties": { "venue_id": "f9f4842795d25498be4db662", "entity_nam": "H-E-B", "lat": 29.795488992929172, "lng": -94.977358840681305, "rank": 69.0, "totRank": null, "visitors": 296994.0, "visits": 1807052.0, "tot_vistr": 67219977.0, "tot_vis": 453659592.0, "totPop": 122988.0, "popDen": 1450.922142, "aveHHI": 77558.225378000003, "medHHI": 62972.245633660183 }, "geometry": { "type": "Point", "coordinates": [ -94.977358840681305, 29.795488992929172 ] } },
{ "type": "Feature", "properties": { "venue_id": "1329989fa4fbfd7bee252ff2", "entity_nam": "H-E-B", "lat": 29.465632271928047, "lng": -98.525384985178832, "rank": 70.0, "totRank": null, "visitors": 223456.0, "visits": 1804839.0, "tot_vistr": 67219977.0, "tot_vis": 453659592.0, "totPop": 82516.0, "popDen": 6649.361901, "aveHHI": 52697.327557999997, "medHHI": 38514.807112526847 }, "geometry": { "type": "Point", "coordinates": [ -98.525384985178832, 29.465632271928047 ] } },
{ "type": "Feature", "properties": { "venue_id": "70e78dc5b980706e9ac34f8c", "entity_nam": "H-E-B", "lat": 30.144489877737904, "lng": -96.398065586041625, "rank": 71.0, "totRank": null, "visitors": 188539.0, "visits": 1803012.0, "tot_vistr": 67219977.0, "tot_vis": 453659592.0, "totPop": 33957.0, "popDen": 150.256366, "aveHHI": 71186.116978000005, "medHHI": 51024.775678654638 }, "geometry": { "type": "Point", "coordinates": [ -96.398065586041625, 30.144489877737904 ] } },
{ "type": "Feature", "properties": { "venue_id": "b14edc71626bd2e1a1ea47fa", "entity_nam": "H-E-B", "lat": 29.607952379176503, "lng": -95.645919997331191, "rank": 72.0, "totRank": null, "visitors": 323709.0, "visits": 1801499.0, "tot_vistr": 67219977.0, "tot_vis": 453659592.0, "totPop": 203681.0, "popDen": 3846.186852, "aveHHI": 111739.22963099999, "medHHI": 79884.85580177822 }, "geometry": { "type": "Point", "coordinates": [ -95.645919997331191, 29.607952379176503 ] } },
{ "type": "Feature", "properties": { "venue_id": "9579f32a9126981c7f21db6a", "entity_nam": "H-E-B", "lat": 26.171231434598727, "lng": -97.989197443511287, "rank": 73.0, "totRank": null, "visitors": 227254.0, "visits": 1795969.0, "tot_vistr": 67219977.0, "tot_vis": 453659592.0, "totPop": 77326.0, "popDen": 1360.901289, "aveHHI": 51039.776986999997, "medHHI": 35595.018105972165 }, "geometry": { "type": "Point", "coordinates": [ -97.989197443511287, 26.171231434598727 ] } },
{ "type": "Feature", "properties": { "venue_id": "177e32982548dd941dc6bbc9", "entity_nam": "H-E-B", "lat": 31.118614066399971, "lng": -97.86454882670084, "rank": 74.0, "totRank": null, "visitors": 196957.0, "visits": 1791157.0, "tot_vistr": 67219977.0, "tot_vis": 453659592.0, "totPop": 44174.0, "popDen": 1647.743259, "aveHHI": 62288.76431, "medHHI": 48762.499263908103 }, "geometry": { "type": "Point", "coordinates": [ -97.86454882670084, 31.118614066399971 ] } },
{ "type": "Feature", "properties": { "venue_id": "b15ea7515f4ec4b9d35c6cc4", "entity_nam": "H-E-B", "lat": 31.090951749316645, "lng": -97.736051578259051, "rank": 75.0, "totRank": null, "visitors": 270893.0, "visits": 1789597.0, "tot_vistr": 67219977.0, "tot_vis": 453659592.0, "totPop": 101906.0, "popDen": 3347.286369, "aveHHI": 56349.925437999998, "medHHI": 45715.254629091636 }, "geometry": { "type": "Point", "coordinates": [ -97.736051578259051, 31.090951749316645 ] } },
{ "type": "Feature", "properties": { "venue_id": "d150389a0cb03222b076b0fe", "entity_nam": "H-E-B", "lat": 29.231449023215788, "lng": -98.791756805511113, "rank": 76.0, "totRank": null, "visitors": 177375.0, "visits": 1787789.0, "tot_vistr": 67219977.0, "tot_vis": 453659592.0, "totPop": 52921.0, "popDen": 430.1971, "aveHHI": 61303.048389000003, "medHHI": 43117.208513601421 }, "geometry": { "type": "Point", "coordinates": [ -98.791756805511113, 29.231449023215788 ] } },
{ "type": "Feature", "properties": { "venue_id": "64328163efe9c4aa4665fd64", "entity_nam": "H-E-B", "lat": 30.582726456271889, "lng": -98.279964800939339, "rank": 77.0, "totRank": null, "visitors": 220871.0, "visits": 1777963.0, "tot_vistr": 67219977.0, "tot_vis": 453659592.0, "totPop": 41644.0, "popDen": 180.384399, "aveHHI": 76608.425965999995, "medHHI": 54283.386779052962 }, "geometry": { "type": "Point", "coordinates": [ -98.279964800939339, 30.582726456271889 ] } },
{ "type": "Feature", "properties": { "venue_id": "b4d6e4c13725a6f1938326e7", "entity_nam": "H-E-B", "lat": 27.576453736362335, "lng": -99.471848881501984, "rank": 78.0, "totRank": null, "visitors": 206134.0, "visits": 1774123.0, "tot_vistr": 67219977.0, "tot_vis": 453659592.0, "totPop": 88838.0, "popDen": 2785.395118, "aveHHI": 90807.131431000002, "medHHI": 71608.931187977636 }, "geometry": { "type": "Point", "coordinates": [ -99.471848881501984, 27.576453736362335 ] } },
{ "type": "Feature", "properties": { "venue_id": "3c59f305545d32fcba41ffae", "entity_nam": "H-E-B", "lat": 26.217980087473624, "lng": -98.258689849765091, "rank": 79.0, "totRank": null, "visitors": 247284.0, "visits": 1773842.0, "tot_vistr": 67219977.0, "tot_vis": 453659592.0, "totPop": 90115.0, "popDen": 3698.697758, "aveHHI": 66304.789894000001, "medHHI": 44796.371089768705 }, "geometry": { "type": "Point", "coordinates": [ -98.258689849765091, 26.217980087473624 ] } },
{ "type": "Feature", "properties": { "venue_id": "3face9f9b39cb15e24bc74ab", "entity_nam": "H-E-B", "lat": 29.667014100844202, "lng": -95.096780228103583, "rank": 80.0, "totRank": null, "visitors": 214394.0, "visits": 1765314.0, "tot_vistr": 67219977.0, "tot_vis": 453659592.0, "totPop": 74266.0, "popDen": 2128.44511, "aveHHI": 92645.51863000001, "medHHI": 79024.374443856068 }, "geometry": { "type": "Point", "coordinates": [ -95.096780228103583, 29.667014100844202 ] } },
{ "type": "Feature", "properties": { "venue_id": "8cc326fe23d2da9f4bf4a5fe", "entity_nam": "H-E-B", "lat": 26.289404941433652, "lng": -98.195905101247632, "rank": 81.0, "totRank": null, "visitors": 223090.0, "visits": 1764433.0, "tot_vistr": 67219977.0, "tot_vis": 453659592.0, "totPop": 87607.0, "popDen": 1281.907783, "aveHHI": 67569.956198, "medHHI": 50116.918498378793 }, "geometry": { "type": "Point", "coordinates": [ -98.195905101247632, 26.289404941433652 ] } },
{ "type": "Feature", "properties": { "venue_id": "5e6f28ffa486694e4231ab2f", "entity_nam": "H-E-B", "lat": 30.068589048220574, "lng": -95.251696122216899, "rank": 82.0, "totRank": null, "visitors": 304954.0, "visits": 1750209.0, "tot_vistr": 67219977.0, "tot_vis": 453659592.0, "totPop": 268963.0, "popDen": 1870.595973, "aveHHI": 86879.001212000003, "medHHI": 64400.311288054087 }, "geometry": { "type": "Point", "coordinates": [ -95.251696122216899, 30.068589048220574 ] } },
{ "type": "Feature", "properties": { "venue_id": "6642c51a56c55b715abf39dc", "entity_nam": "H-E-B", "lat": 30.502559315847989, "lng": -97.583244902824148, "rank": 83.0, "totRank": null, "visitors": 252530.0, "visits": 1748122.0, "tot_vistr": 67219977.0, "tot_vis": 453659592.0, "totPop": 96592.0, "popDen": 1879.080751, "aveHHI": 113344.468085, "medHHI": 97444.237381278115 }, "geometry": { "type": "Point", "coordinates": [ -97.583244902824148, 30.502559315847989 ] } },
{ "type": "Feature", "properties": { "venue_id": "b387177f06a7c91c40d43216", "entity_nam": "H-E-B", "lat": 30.6126231404353, "lng": -96.318898481847313, "rank": 84.0, "totRank": null, "visitors": 407222.0, "visits": 1745408.0, "tot_vistr": 67219977.0, "tot_vis": 453659592.0, "totPop": 94294.0, "popDen": 3669.191977, "aveHHI": 51465.245709000003, "medHHI": 33454.700069415194 }, "geometry": { "type": "Point", "coordinates": [ -96.318898481847313, 30.6126231404353 ] } },
{ "type": "Feature", "properties": { "venue_id": "56fb2e01b02e4cf94badb439", "entity_nam": "H-E-B", "lat": 29.992509885961788, "lng": -95.744446580060952, "rank": 85.0, "totRank": null, "visitors": 289466.0, "visits": 1743936.0, "tot_vistr": 67219977.0, "tot_vis": 453659592.0, "totPop": 191962.0, "popDen": 1795.195356, "aveHHI": 103356.77825, "medHHI": 82699.828174924594 }, "geometry": { "type": "Point", "coordinates": [ -95.744446580060952, 29.992509885961788 ] } },
{ "type": "Feature", "properties": { "venue_id": "5e68076cd9886e20121b4e75", "entity_nam": "H-E-B", "lat": 29.768594571786704, "lng": -95.396336547379704, "rank": 86.0, "totRank": null, "visitors": 324639.0, "visits": 1739100.0, "tot_vistr": 67219977.0, "tot_vis": 453659592.0, "totPop": 243747.0, "popDen": 5767.6461, "aveHHI": 117467.08927500001, "medHHI": 76572.601856726134 }, "geometry": { "type": "Point", "coordinates": [ -95.396336547379704, 29.768594571786704 ] } },
{ "type": "Feature", "properties": { "venue_id": "ca8ff1a1d27b7bfb22adeccb", "entity_nam": "H-E-B", "lat": 31.079974186871318, "lng": -97.758929772548214, "rank": 87.0, "totRank": null, "visitors": 241044.0, "visits": 1733210.0, "tot_vistr": 67219977.0, "tot_vis": 453659592.0, "totPop": 79346.0, "popDen": 2935.335197, "aveHHI": 63306.163545000003, "medHHI": 52391.303743931327 }, "geometry": { "type": "Point", "coordinates": [ -97.758929772548214, 31.079974186871318 ] } },
{ "type": "Feature", "properties": { "venue_id": "1b53c1af4fcf51cf053e0b19", "entity_nam": "H-E-B", "lat": 29.470001330449708, "lng": -98.496247262074931, "rank": 88.0, "totRank": null, "visitors": 210493.0, "visits": 1726035.0, "tot_vistr": 67219977.0, "tot_vis": 453659592.0, "totPop": 91294.0, "popDen": 5927.107294, "aveHHI": 64763.266793000003, "medHHI": 43865.770659197326 }, "geometry": { "type": "Point", "coordinates": [ -98.496247262074931, 29.470001330449708 ] } },
{ "type": "Feature", "properties": { "venue_id": "64ef33c5a54f7c58f1aada14", "entity_nam": "H-E-B", "lat": 26.190732236226015, "lng": -98.125120230409905, "rank": 89.0, "totRank": null, "visitors": 213847.0, "visits": 1722148.0, "tot_vistr": 67219977.0, "tot_vis": 453659592.0, "totPop": 63833.0, "popDen": 2070.576774, "aveHHI": 50202.693563000001, "medHHI": 34966.90216557739 }, "geometry": { "type": "Point", "coordinates": [ -98.125120230409905, 26.190732236226015 ] } },
{ "type": "Feature", "properties": { "venue_id": "dae401f303bdb936d1589fbe", "entity_nam": "H-E-B", "lat": 29.923022401081642, "lng": -95.196970884756865, "rank": 90.0, "totRank": null, "visitors": 321223.0, "visits": 1718875.0, "tot_vistr": 67219977.0, "tot_vis": 453659592.0, "totPop": 252215.0, "popDen": 2548.4976, "aveHHI": 78775.074175999995, "medHHI": 60774.044022591843 }, "geometry": { "type": "Point", "coordinates": [ -95.196970884756865, 29.923022401081642 ] } },
{ "type": "Feature", "properties": { "venue_id": "bb540e958c5e712683cab1d0", "entity_nam": "H-E-B", "lat": 29.55289416334567, "lng": -98.534183707483848, "rank": 91.0, "totRank": null, "visitors": 248381.0, "visits": 1718171.0, "tot_vistr": 67219977.0, "tot_vis": 453659592.0, "totPop": 107056.0, "popDen": 4337.72515, "aveHHI": 92056.011851999996, "medHHI": 60101.834095571096 }, "geometry": { "type": "Point", "coordinates": [ -98.534183707483848, 29.55289416334567 ] } },
{ "type": "Feature", "properties": { "venue_id": "893e4bc39c8fd336cb5d9a1b", "entity_nam": "H-E-B", "lat": 29.366249767901976, "lng": -100.89989558420815, "rank": 92.0, "totRank": null, "visitors": 145989.0, "visits": 1715082.0, "tot_vistr": 67219977.0, "tot_vis": 453659592.0, "totPop": 37800.0, "popDen": 337.318783, "aveHHI": 58058.097643000001, "medHHI": 44710.141558916555 }, "geometry": { "type": "Point", "coordinates": [ -100.899895584208153, 29.366249767901976 ] } },
{ "type": "Feature", "properties": { "venue_id": "86df6313a056d85d67fa5c47", "entity_nam": "H-E-B", "lat": 29.536787306575203, "lng": -95.536503728610356, "rank": 93.0, "totRank": null, "visitors": 214101.0, "visits": 1710036.0, "tot_vistr": 67219977.0, "tot_vis": 453659592.0, "totPop": 80986.0, "popDen": 1559.090795, "aveHHI": 129211.70899499999, "medHHI": 100784.90202851062 }, "geometry": { "type": "Point", "coordinates": [ -95.536503728610356, 29.536787306575203 ] } },
{ "type": "Feature", "properties": { "venue_id": "9b14ab58cbf7fbbee6b2dea7", "entity_nam": "H-E-B", "lat": 29.56971415388135, "lng": -98.386759767282598, "rank": 94.0, "totRank": null, "visitors": 204003.0, "visits": 1707059.0, "tot_vistr": 67219977.0, "tot_vis": 453659592.0, "totPop": 66071.0, "popDen": 4470.339102, "aveHHI": 73792.564174, "medHHI": 62030.732144201465 }, "geometry": { "type": "Point", "coordinates": [ -98.386759767282598, 29.56971415388135 ] } },
{ "type": "Feature", "properties": { "venue_id": "fa8b4d62c1d3e3ac9fe4051d", "entity_nam": "H-E-B", "lat": 29.551699411671326, "lng": -95.747542021141015, "rank": 95.0, "totRank": null, "visitors": 225133.0, "visits": 1706525.0, "tot_vistr": 67219977.0, "tot_vis": 453659592.0, "totPop": 113825.0, "popDen": 747.467078, "aveHHI": 92242.046409000002, "medHHI": 64055.402245236954 }, "geometry": { "type": "Point", "coordinates": [ -95.747542021141015, 29.551699411671326 ] } },
{ "type": "Feature", "properties": { "venue_id": "c9b260b5e4de4a7a8bdbbdcd", "entity_nam": "H-E-B", "lat": 30.584024177419217, "lng": -97.857941694264838, "rank": 96.0, "totRank": null, "visitors": 210323.0, "visits": 1698887.0, "tot_vistr": 67219977.0, "tot_vis": 453659592.0, "totPop": 84963.0, "popDen": 2032.41027, "aveHHI": 98803.13105, "medHHI": 87590.800456606987 }, "geometry": { "type": "Point", "coordinates": [ -97.857941694264838, 30.584024177419217 ] } },
{ "type": "Feature", "properties": { "venue_id": "23607632b7c865c2e234d2be", "entity_nam": "H-E-B", "lat": 31.860876160749669, "lng": -102.41079388902818, "rank": 97.0, "totRank": null, "visitors": 229508.0, "visits": 1698880.0, "tot_vistr": 67219977.0, "tot_vis": 453659592.0, "totPop": 98657.0, "popDen": 1524.019841, "aveHHI": 70598.480224, "medHHI": 55673.14939822934 }, "geometry": { "type": "Point", "coordinates": [ -102.410793889028184, 31.860876160749669 ] } },
{ "type": "Feature", "properties": { "venue_id": "2a87f698ed0ee566b66304aa", "entity_nam": "H-E-B", "lat": 30.30095170042188, "lng": -97.698536625657226, "rank": 98.0, "totRank": null, "visitors": 296600.0, "visits": 1698126.0, "tot_vistr": 67219977.0, "tot_vis": 453659592.0, "totPop": 128757.0, "popDen": 5480.788191, "aveHHI": 71645.222676999998, "medHHI": 49139.629804673379 }, "geometry": { "type": "Point", "coordinates": [ -97.698536625657226, 30.30095170042188 ] } },
{ "type": "Feature", "properties": { "venue_id": "95e7e8a5aab4d2408f35bf50", "entity_nam": "H-E-B", "lat": 30.643746856656886, "lng": -96.350727152637731, "rank": 99.0, "totRank": null, "visitors": 289908.0, "visits": 1686681.0, "tot_vistr": 67219977.0, "tot_vis": 453659592.0, "totPop": 112534.0, "popDen": 3298.479792, "aveHHI": 52099.440727000001, "medHHI": 37046.620964469221 }, "geometry": { "type": "Point", "coordinates": [ -96.350727152637731, 30.643746856656886 ] } },
{ "type": "Feature", "properties": { "venue_id": "78cd0f0a8d70b5548067eeb6", "entity_nam": "H-E-B", "lat": 29.606229596347351, "lng": -95.126945829635758, "rank": 100.0, "totRank": null, "visitors": 171379.0, "visits": 1685950.0, "tot_vistr": 67219977.0, "tot_vis": 453659592.0, "totPop": 54658.0, "popDen": 1823.970104, "aveHHI": 140705.26447200001, "medHHI": 110117.00249622058 }, "geometry": { "type": "Point", "coordinates": [ -95.126945829635758, 29.606229596347351 ] } },
{ "type": "Feature", "properties": { "venue_id": "9699730db53436df659e6686", "entity_nam": "H-E-B", "lat": 26.163539230698188, "lng": -98.004948980196275, "rank": 101.0, "totRank": null, "visitors": 204237.0, "visits": 1681164.0, "tot_vistr": 67219977.0, "tot_vis": 453659592.0, "totPop": 74175.0, "popDen": 1966.569228, "aveHHI": 53197.124067999997, "medHHI": 36876.373439282979 }, "geometry": { "type": "Point", "coordinates": [ -98.004948980196275, 26.163539230698188 ] } },
{ "type": "Feature", "properties": { "venue_id": "3531887571fb9a8a3a3ba2d4", "entity_nam": "H-E-B", "lat": 30.071768645055474, "lng": -95.501864890279336, "rank": 102.0, "totRank": null, "visitors": 220472.0, "visits": 1669563.0, "tot_vistr": 67219977.0, "tot_vis": 453659592.0, "totPop": 101596.0, "popDen": 2779.896099, "aveHHI": 110081.957195, "medHHI": 87934.366630856835 }, "geometry": { "type": "Point", "coordinates": [ -95.501864890279336, 30.071768645055474 ] } },
{ "type": "Feature", "properties": { "venue_id": "5ea064db82e84590b757103f", "entity_nam": "H-E-B", "lat": 29.505658479148149, "lng": -95.038768576448263, "rank": 103.0, "totRank": null, "visitors": 226900.0, "visits": 1666191.0, "tot_vistr": 67219977.0, "tot_vis": 453659592.0, "totPop": 104520.0, "popDen": 2238.640677, "aveHHI": 104423.687507, "medHHI": 82411.576098935562 }, "geometry": { "type": "Point", "coordinates": [ -95.038768576448263, 29.505658479148149 ] } },
{ "type": "Feature", "properties": { "venue_id": "3eed4bafb73b0af75060fa99", "entity_nam": "H-E-B", "lat": 29.781824786247181, "lng": -98.733808340988276, "rank": 104.0, "totRank": null, "visitors": 201473.0, "visits": 1660835.0, "tot_vistr": 67219977.0, "tot_vis": 453659592.0, "totPop": 59285.0, "popDen": 1127.956911, "aveHHI": 90816.758461999998, "medHHI": 63057.490479955464 }, "geometry": { "type": "Point", "coordinates": [ -98.733808340988276, 29.781824786247181 ] } },
{ "type": "Feature", "properties": { "venue_id": "e3f4172cc79abb93efa0f337", "entity_nam": "H-E-B", "lat": 29.397749958470452, "lng": -98.515019078100622, "rank": 105.0, "totRank": null, "visitors": 225827.0, "visits": 1652571.0, "tot_vistr": 67219977.0, "tot_vis": 453659592.0, "totPop": 74626.0, "popDen": 6524.6767, "aveHHI": 46905.136249000003, "medHHI": 33795.721265861706 }, "geometry": { "type": "Point", "coordinates": [ -98.515019078100622, 29.397749958470452 ] } },
{ "type": "Feature", "properties": { "venue_id": "fb087c884d31a7d74959a767", "entity_nam": "H-E-B", "lat": 29.648655890500009, "lng": -95.144456694781141, "rank": 106.0, "totRank": null, "visitors": 289693.0, "visits": 1649808.0, "tot_vistr": 67219977.0, "tot_vis": 453659592.0, "totPop": 208131.0, "popDen": 4769.679807, "aveHHI": 70727.300378, "medHHI": 57697.367338288255 }, "geometry": { "type": "Point", "coordinates": [ -95.144456694781141, 29.648655890500009 ] } },
{ "type": "Feature", "properties": { "venue_id": "6776b107938493cbfdd16348", "entity_nam": "H-E-B", "lat": 29.485426258131888, "lng": -98.66412630179201, "rank": 107.0, "totRank": null, "visitors": 197675.0, "visits": 1648493.0, "tot_vistr": 67219977.0, "tot_vis": 453659592.0, "totPop": 64596.0, "popDen": 5215.358838, "aveHHI": 78334.634361000004, "medHHI": 66822.257663380748 }, "geometry": { "type": "Point", "coordinates": [ -98.66412630179201, 29.485426258131888 ] } },
{ "type": "Feature", "properties": { "venue_id": "e3ee731f21def2cd554f2c37", "entity_nam": "H-E-B", "lat": 29.74794778577963, "lng": -95.485151011869334, "rank": 108.0, "totRank": null, "visitors": 251775.0, "visits": 1647670.0, "tot_vistr": 67219977.0, "tot_vis": 453659592.0, "totPop": 139470.0, "popDen": 8405.473777, "aveHHI": 109938.357406, "medHHI": 58844.343037395098 }, "geometry": { "type": "Point", "coordinates": [ -95.485151011869334, 29.74794778577963 ] } },
{ "type": "Feature", "properties": { "venue_id": "3c3f2fd82502601da5563397", "entity_nam": "H-E-B", "lat": 29.707354408620979, "lng": -95.469807247602873, "rank": 109.0, "totRank": null, "visitors": 258202.0, "visits": 1646842.0, "tot_vistr": 67219977.0, "tot_vis": 453659592.0, "totPop": 194721.0, "popDen": 7950.142081, "aveHHI": 98281.396915999998, "medHHI": 52264.666426639931 }, "geometry": { "type": "Point", "coordinates": [ -95.469807247602873, 29.707354408620979 ] } },
{ "type": "Feature", "properties": { "venue_id": "60531f85891f0e2e951d9e23", "entity_nam": "H-E-B", "lat": 31.071914372152619, "lng": -97.370120012859502, "rank": 110.0, "totRank": null, "visitors": 232737.0, "visits": 1646766.0, "tot_vistr": 67219977.0, "tot_vis": 453659592.0, "totPop": 89430.0, "popDen": 1014.930262, "aveHHI": 70603.787624999997, "medHHI": 53945.374356837725 }, "geometry": { "type": "Point", "coordinates": [ -97.370120012859502, 31.071914372152619 ] } },
{ "type": "Feature", "properties": { "venue_id": "325cca5c6b7ebdd89bbc0244", "entity_nam": "H-E-B", "lat": 30.56147354590647, "lng": -97.688214801856873, "rank": 111.0, "totRank": null, "visitors": 307020.0, "visits": 1643218.0, "tot_vistr": 67219977.0, "tot_vis": 453659592.0, "totPop": 108098.0, "popDen": 2538.116762, "aveHHI": 107756.66050500001, "medHHI": 91616.507038052761 }, "geometry": { "type": "Point", "coordinates": [ -97.688214801856873, 30.56147354590647 ] } },
{ "type": "Feature", "properties": { "venue_id": "f141eb6fcd354096c4985229", "entity_nam": "H-E-B", "lat": 26.237835073323286, "lng": -98.390399650029579, "rank": 112.0, "totRank": null, "visitors": 178142.0, "visits": 1641007.0, "tot_vistr": 67219977.0, "tot_vis": 453659592.0, "totPop": 52168.0, "popDen": 1012.855118, "aveHHI": 54078.552168000002, "medHHI": 36575.957477396805 }, "geometry": { "type": "Point", "coordinates": [ -98.390399650029579, 26.237835073323286 ] } },
{ "type": "Feature", "properties": { "venue_id": "bf933b81e89f4a17a9b9c0c8", "entity_nam": "H-E-B", "lat": 30.300560043085191, "lng": -97.719732379763414, "rank": 113.0, "totRank": null, "visitors": 355232.0, "visits": 1639303.0, "tot_vistr": 67219977.0, "tot_vis": 453659592.0, "totPop": 178979.0, "popDen": 6569.264318, "aveHHI": 80928.980492000002, "medHHI": 52037.696459427651 }, "geometry": { "type": "Point", "coordinates": [ -97.719732379763414, 30.300560043085191 ] } },
{ "type": "Feature", "properties": { "venue_id": "242eab56595863c19e1d0b7a", "entity_nam": "H-E-B", "lat": 29.46620632157742, "lng": -95.094390979090633, "rank": 114.0, "totRank": null, "visitors": 287667.0, "visits": 1633352.0, "tot_vistr": 67219977.0, "tot_vis": 453659592.0, "totPop": 125653.0, "popDen": 1198.907761, "aveHHI": 88185.770793000003, "medHHI": 68045.639003856049 }, "geometry": { "type": "Point", "coordinates": [ -95.094390979090633, 29.46620632157742 ] } },
{ "type": "Feature", "properties": { "venue_id": "2b6fd5ef5d3030b599ad2372", "entity_nam": "H-E-B", "lat": 32.758339063308227, "lng": -97.697344304743424, "rank": 115.0, "totRank": null, "visitors": 351855.0, "visits": 1632190.0, "tot_vistr": 67219977.0, "tot_vis": 453659592.0, "totPop": 320889.0, "popDen": 747.512325, "aveHHI": 89693.273757999996, "medHHI": 67276.178249510602 }, "geometry": { "type": "Point", "coordinates": [ -97.697344304743424, 32.758339063308227 ] } },
{ "type": "Feature", "properties": { "venue_id": "7bbc2569b06491ea72a80015", "entity_nam": "H-E-B", "lat": 31.58754863235357, "lng": -97.107290911464148, "rank": 116.0, "totRank": null, "visitors": 293460.0, "visits": 1628143.0, "tot_vistr": 67219977.0, "tot_vis": 453659592.0, "totPop": 119481.0, "popDen": 1114.506373, "aveHHI": 49084.773536000001, "medHHI": 34876.69410470486 }, "geometry": { "type": "Point", "coordinates": [ -97.107290911464148, 31.58754863235357 ] } },
{ "type": "Feature", "properties": { "venue_id": "a63a344f4d860d4cffa3b115", "entity_nam": "H-E-B", "lat": 27.506126609723029, "lng": -99.483067010264747, "rank": 117.0, "totRank": null, "visitors": 176178.0, "visits": 1626343.0, "tot_vistr": 67219977.0, "tot_vis": 453659592.0, "totPop": 69085.0, "popDen": 3045.66421, "aveHHI": 48069.135801999997, "medHHI": 34943.331174180603 }, "geometry": { "type": "Point", "coordinates": [ -99.483067010264747, 27.506126609723029 ] } },
{ "type": "Feature", "properties": { "venue_id": "3c61bf0e10174a1f6960201a", "entity_nam": "H-E-B", "lat": 30.070063874928184, "lng": -94.12839300370355, "rank": 118.0, "totRank": null, "visitors": 223696.0, "visits": 1623122.0, "tot_vistr": 67219977.0, "tot_vis": 453659592.0, "totPop": 62220.0, "popDen": 2127.861649, "aveHHI": 53411.477695000001, "medHHI": 39573.577458399333 }, "geometry": { "type": "Point", "coordinates": [ -94.12839300370355, 30.070063874928184 ] } },
{ "type": "Feature", "properties": { "venue_id": "955ffc14721a77f37fdc961d", "entity_nam": "H-E-B", "lat": 29.735118339761279, "lng": -95.587261520000212, "rank": 119.0, "totRank": null, "visitors": 295894.0, "visits": 1620021.0, "tot_vistr": 67219977.0, "tot_vis": 453659592.0, "totPop": 184276.0, "popDen": 7302.384252, "aveHHI": 76537.213495999997, "medHHI": 50724.493940842767 }, "geometry": { "type": "Point", "coordinates": [ -95.587261520000212, 29.735118339761279 ] } },
{ "type": "Feature", "properties": { "venue_id": "bfd968cde4f9721de8967ea3", "entity_nam": "H-E-B", "lat": 30.477942275592941, "lng": -97.803325814200008, "rank": 120.0, "totRank": null, "visitors": 292564.0, "visits": 1610031.0, "tot_vistr": 67219977.0, "tot_vis": 453659592.0, "totPop": 116879.0, "popDen": 3585.760272, "aveHHI": 106846.96527099999, "medHHI": 90653.689584580628 }, "geometry": { "type": "Point", "coordinates": [ -97.803325814200008, 30.477942275592941 ] } },
{ "type": "Feature", "properties": { "venue_id": "8ad0dbde7ad2e32b45c52766", "entity_nam": "H-E-B", "lat": 29.48660203250234, "lng": -98.731472569190089, "rank": 121.0, "totRank": null, "visitors": 208331.0, "visits": 1607768.0, "tot_vistr": 67219977.0, "tot_vis": 453659592.0, "totPop": 50187.0, "popDen": 3633.4681, "aveHHI": 92155.465179000006, "medHHI": 80261.593551586993 }, "geometry": { "type": "Point", "coordinates": [ -98.731472569190089, 29.48660203250234 ] } },
{ "type": "Feature", "properties": { "venue_id": "1d84f6541794c491474c541a", "entity_nam": "H-E-B", "lat": 25.919299335841217, "lng": -97.488671189905901, "rank": 122.0, "totRank": null, "visitors": 240664.0, "visits": 1607708.0, "tot_vistr": 67219977.0, "tot_vis": 453659592.0, "totPop": 120212.0, "popDen": 3119.773769, "aveHHI": 45435.282773, "medHHI": 31524.216232426661 }, "geometry": { "type": "Point", "coordinates": [ -97.488671189905901, 25.919299335841217 ] } },
{ "type": "Feature", "properties": { "venue_id": "20e6661824f86b62c7a81e78", "entity_nam": "H-E-B", "lat": 32.017992213320206, "lng": -102.12615963480043, "rank": 123.0, "totRank": null, "visitors": 233016.0, "visits": 1602819.0, "tot_vistr": 67219977.0, "tot_vis": 453659592.0, "totPop": 109509.0, "popDen": 3845.054036, "aveHHI": 102417.22052800001, "medHHI": 74093.644276730964 }, "geometry": { "type": "Point", "coordinates": [ -102.12615963480043, 32.017992213320206 ] } },
{ "type": "Feature", "properties": { "venue_id": "4f1b2ecf897e7d9935010577", "entity_nam": "H-E-B", "lat": 27.531954653633665, "lng": -99.470974979976788, "rank": 124.0, "totRank": null, "visitors": 190359.0, "visits": 1601613.0, "tot_vistr": 67219977.0, "tot_vis": 453659592.0, "totPop": 82737.0, "popDen": 1744.214753, "aveHHI": 51827.550887999998, "medHHI": 38371.294614237369 }, "geometry": { "type": "Point", "coordinates": [ -99.470974979976788, 27.531954653633665 ] } },
{ "type": "Feature", "properties": { "venue_id": "3097897996cff2d4565eb7d5", "entity_nam": "H-E-B", "lat": 30.270075699268961, "lng": -98.875461374304635, "rank": 125.0, "totRank": null, "visitors": 270972.0, "visits": 1598719.0, "tot_vistr": 67219977.0, "tot_vis": 453659592.0, "totPop": 18945.0, "popDen": 659.78861, "aveHHI": 74678.712257000007, "medHHI": 48870.738759291882 }, "geometry": { "type": "Point", "coordinates": [ -98.875461374304635, 30.270075699268961 ] } },
{ "type": "Feature", "properties": { "venue_id": "b92e27037f860b53bfb184d8", "entity_nam": "H-E-B", "lat": 29.423387178317249, "lng": -98.77998013928169, "rank": 126.0, "totRank": null, "visitors": 184902.0, "visits": 1594940.0, "tot_vistr": 67219977.0, "tot_vis": 453659592.0, "totPop": 86830.0, "popDen": 1379.95423, "aveHHI": 79345.694881000003, "medHHI": 69026.586242236168 }, "geometry": { "type": "Point", "coordinates": [ -98.77998013928169, 29.423387178317249 ] } },
{ "type": "Feature", "properties": { "venue_id": "70cbea7f1c21ca24fd2410c4", "entity_nam": "H-E-B", "lat": 28.956024786137508, "lng": -98.48642759548828, "rank": 127.0, "totRank": null, "visitors": 163637.0, "visits": 1591281.0, "tot_vistr": 67219977.0, "tot_vis": 453659592.0, "totPop": 32583.0, "popDen": 128.356481, "aveHHI": 69361.641822000005, "medHHI": 52375.533601642208 }, "geometry": { "type": "Point", "coordinates": [ -98.48642759548828, 28.956024786137508 ] } },
{ "type": "Feature", "properties": { "venue_id": "ae1d5bd3958e317fe524feb2", "entity_nam": "H-E-B", "lat": 29.705726604597803, "lng": -95.641601533475452, "rank": 128.0, "totRank": null, "visitors": 279955.0, "visits": 1583860.0, "tot_vistr": 67219977.0, "tot_vis": 453659592.0, "totPop": 144818.0, "popDen": 7259.522536, "aveHHI": 65103.187287000001, "medHHI": 51162.426121243858 }, "geometry": { "type": "Point", "coordinates": [ -95.641601533475452, 29.705726604597803 ] } },
{ "type": "Feature", "properties": { "venue_id": "ab1469220a283422ef6cd944", "entity_nam": "H-E-B", "lat": 29.50546090446602, "lng": -95.19086790948208, "rank": 129.0, "totRank": null, "visitors": 206237.0, "visits": 1579124.0, "tot_vistr": 67219977.0, "tot_vis": 453659592.0, "totPop": 67965.0, "popDen": 2291.496278, "aveHHI": 131603.303965, "medHHI": 106472.12475494519 }, "geometry": { "type": "Point", "coordinates": [ -95.19086790948208, 29.50546090446602 ] } },
{ "type": "Feature", "properties": { "venue_id": "ae61c91cbaf226c77535c360", "entity_nam": "H-E-B", "lat": 29.659950917547246, "lng": -95.713405650315309, "rank": 130.0, "totRank": null, "visitors": 245079.0, "visits": 1578947.0, "tot_vistr": 67219977.0, "tot_vis": 453659592.0, "totPop": 134657.0, "popDen": 3681.719227, "aveHHI": 103813.117411, "medHHI": 87208.791935323097 }, "geometry": { "type": "Point", "coordinates": [ -95.713405650315309, 29.659950917547246 ] } },
{ "type": "Feature", "properties": { "venue_id": "56f1a4697c44d2b5fe87dd8b", "entity_nam": "H-E-B", "lat": 29.209599433577807, "lng": -99.783285212261461, "rank": 131.0, "totRank": null, "visitors": 177912.0, "visits": 1571432.0, "tot_vistr": 67219977.0, "tot_vis": 453659592.0, "totPop": 21654.0, "popDen": 30.991887, "aveHHI": 50986.843266999997, "medHHI": 37737.112931922078 }, "geometry": { "type": "Point", "coordinates": [ -99.783285212261461, 29.209599433577807 ] } },
{ "type": "Feature", "properties": { "venue_id": "12a685db1ef645da298cf74a", "entity_nam": "H-E-B", "lat": 29.446050415312992, "lng": -98.542487527253044, "rank": 132.0, "totRank": null, "visitors": 216362.0, "visits": 1558135.0, "tot_vistr": 67219977.0, "tot_vis": 453659592.0, "totPop": 90538.0, "popDen": 6832.671667, "aveHHI": 44110.653364999998, "medHHI": 32118.212685219638 }, "geometry": { "type": "Point", "coordinates": [ -98.542487527253044, 29.446050415312992 ] } },
{ "type": "Feature", "properties": { "venue_id": "85cae0c72c273ca8950b5e6d", "entity_nam": "H-E-B", "lat": 30.532118752422306, "lng": -97.785012825199999, "rank": 133.0, "totRank": null, "visitors": 208468.0, "visits": 1554286.0, "tot_vistr": 67219977.0, "tot_vis": 453659592.0, "totPop": 70225.0, "popDen": 2103.303767, "aveHHI": 141166.063, "medHHI": 124684.63248313699 }, "geometry": { "type": "Point", "coordinates": [ -97.785012825199999, 30.532118752422306 ] } },
{ "type": "Feature", "properties": { "venue_id": "aeb12311421e5063c74de17c", "entity_nam": "H-E-B", "lat": 29.479348604794669, "lng": -98.359090925678146, "rank": 134.0, "totRank": null, "visitors": 199472.0, "visits": 1552020.0, "tot_vistr": 67219977.0, "tot_vis": 453659592.0, "totPop": 65704.0, "popDen": 3135.288462, "aveHHI": 72084.845952999996, "medHHI": 60729.465909869934 }, "geometry": { "type": "Point", "coordinates": [ -98.359090925678146, 29.479348604794669 ] } },
{ "type": "Feature", "properties": { "venue_id": "bfb1ab2c317a65cefa5f31b2", "entity_nam": "H-E-B", "lat": 30.002984783323146, "lng": -95.639030301430083, "rank": 135.0, "totRank": null, "visitors": 181827.0, "visits": 1547729.0, "tot_vistr": 67219977.0, "tot_vis": 453659592.0, "totPop": 71760.0, "popDen": 2528.761634, "aveHHI": 139327.795996, "medHHI": 116103.50281420836 }, "geometry": { "type": "Point", "coordinates": [ -95.639030301430083, 30.002984783323146 ] } },
{ "type": "Feature", "properties": { "venue_id": "5bffb3a2aaaed513b5a4ce98", "entity_nam": "H-E-B", "lat": 27.711968619619206, "lng": -97.406040558786685, "rank": 136.0, "totRank": null, "visitors": 185974.0, "visits": 1536920.0, "tot_vistr": 67219977.0, "tot_vis": 453659592.0, "totPop": 57362.0, "popDen": 4577.324188, "aveHHI": 77623.243056000007, "medHHI": 63519.363846698361 }, "geometry": { "type": "Point", "coordinates": [ -97.406040558786685, 27.711968619619206 ] } },
{ "type": "Feature", "properties": { "venue_id": "a0def867b7feb8e4506468b5", "entity_nam": "H-E-B", "lat": 30.216249467312451, "lng": -97.830956074702797, "rank": 137.0, "totRank": null, "visitors": 261613.0, "visits": 1529954.0, "tot_vistr": 67219977.0, "tot_vis": 453659592.0, "totPop": 124009.0, "popDen": 3877.343433, "aveHHI": 102460.722459, "medHHI": 79737.682196320893 }, "geometry": { "type": "Point", "coordinates": [ -97.830956074702797, 30.216249467312451 ] } },
{ "type": "Feature", "properties": { "venue_id": "253eeebe01b92f2ed75de5ed", "entity_nam": "H-E-B", "lat": 27.516189875498551, "lng": -97.862645123750937, "rank": 138.0, "totRank": null, "visitors": 133344.0, "visits": 1519147.0, "tot_vistr": 67219977.0, "tot_vis": 453659592.0, "totPop": 29719.0, "popDen": 988.617304, "aveHHI": 56892.494833999997, "medHHI": 42326.086802231905 }, "geometry": { "type": "Point", "coordinates": [ -97.862645123750937, 27.516189875498551 ] } },
{ "type": "Feature", "properties": { "venue_id": "467552b602a486d83dfac2c5", "entity_nam": "H-E-B", "lat": 29.514888726396009, "lng": -98.524538622813836, "rank": 139.0, "totRank": null, "visitors": 199897.0, "visits": 1511836.0, "tot_vistr": 67219977.0, "tot_vis": 453659592.0, "totPop": 75543.0, "popDen": 5516.835084, "aveHHI": 55857.709832, "medHHI": 41112.013110190172 }, "geometry": { "type": "Point", "coordinates": [ -98.524538622813836, 29.514888726396009 ] } },
{ "type": "Feature", "properties": { "venue_id": "ee842994d4c287370a35ec83", "entity_nam": "H-E-B", "lat": 26.289867037318416, "lng": -98.163189765632069, "rank": 140.0, "totRank": null, "visitors": 204204.0, "visits": 1506730.0, "tot_vistr": 67219977.0, "tot_vis": 453659592.0, "totPop": 111913.0, "popDen": 1678.478618, "aveHHI": 59966.276092, "medHHI": 43599.999965293333 }, "geometry": { "type": "Point", "coordinates": [ -98.163189765632069, 26.289867037318416 ] } },
{ "type": "Feature", "properties": { "venue_id": "557ab296a5b83391a8f7297c", "entity_nam": "H-E-B", "lat": 25.926194223923194, "lng": -97.509628044951143, "rank": 141.0, "totRank": null, "visitors": 167990.0, "visits": 1505212.0, "tot_vistr": 67219977.0, "tot_vis": 453659592.0, "totPop": 47736.0, "popDen": 2350.691158, "aveHHI": 54495.789168000003, "medHHI": 37581.967712843274 }, "geometry": { "type": "Point", "coordinates": [ -97.509628044951143, 25.926194223923194 ] } },
{ "type": "Feature", "properties": { "venue_id": "599fb34e9536fd9a117d3a1e", "entity_nam": "H-E-B", "lat": 30.188727300296378, "lng": -97.768734341401341, "rank": 142.0, "totRank": null, "visitors": 219783.0, "visits": 1503649.0, "tot_vistr": 67219977.0, "tot_vis": 453659592.0, "totPop": 93513.0, "popDen": 3964.087243, "aveHHI": 69088.537536999997, "medHHI": 56907.959720180595 }, "geometry": { "type": "Point", "coordinates": [ -97.768734341401341, 30.188727300296378 ] } },
{ "type": "Feature", "properties": { "venue_id": "d1ecdd1a8adb5d109657c60c", "entity_nam": "H-E-B", "lat": 31.430984171072421, "lng": -100.5110775235265, "rank": 143.0, "totRank": null, "visitors": 231644.0, "visits": 1501300.0, "tot_vistr": 67219977.0, "tot_vis": 453659592.0, "totPop": 95466.0, "popDen": 60.056647, "aveHHI": 70144.051185999997, "medHHI": 51453.557808746918 }, "geometry": { "type": "Point", "coordinates": [ -100.511077523526495, 31.430984171072421 ] } },
{ "type": "Feature", "properties": { "venue_id": "6d7fae515f465fdb66d2bffd", "entity_nam": "H-E-B", "lat": 29.827526001971428, "lng": -94.849980125705173, "rank": 144.0, "totRank": null, "visitors": 209220.0, "visits": 1483768.0, "tot_vistr": 67219977.0, "tot_vis": 453659592.0, "totPop": 99004.0, "popDen": 509.258269, "aveHHI": 83397.402864000003, "medHHI": 68978.328029110853 }, "geometry": { "type": "Point", "coordinates": [ -94.849980125705173, 29.827526001971428 ] } },
{ "type": "Feature", "properties": { "venue_id": "11241e6f6a4bbccc0e033827", "entity_nam": "H-E-B", "lat": 27.739658866898651, "lng": -97.405368526825242, "rank": 145.0, "totRank": null, "visitors": 168154.0, "visits": 1480182.0, "tot_vistr": 67219977.0, "tot_vis": 453659592.0, "totPop": 65973.0, "popDen": 5785.355368, "aveHHI": 51904.560145000003, "medHHI": 41400.256255568529 }, "geometry": { "type": "Point", "coordinates": [ -97.405368526825242, 27.739658866898651 ] } },
{ "type": "Feature", "properties": { "venue_id": "8352b6bdccc464248b9c9b69", "entity_nam": "H-E-B", "lat": 31.533915320273081, "lng": -97.188107646604493, "rank": 146.0, "totRank": null, "visitors": 207713.0, "visits": 1479552.0, "tot_vistr": 67219977.0, "tot_vis": 453659592.0, "totPop": 65341.0, "popDen": 1769.78714, "aveHHI": 60347.166186000002, "medHHI": 41146.694954333652 }, "geometry": { "type": "Point", "coordinates": [ -97.188107646604493, 31.533915320273081 ] } },
{ "type": "Feature", "properties": { "venue_id": "a3e09be7758b9672610b57c5", "entity_nam": "H-E-B", "lat": 26.189586072698386, "lng": -98.225256686985134, "rank": 147.0, "totRank": null, "visitors": 295277.0, "visits": 1478820.0, "tot_vistr": 67219977.0, "tot_vis": 453659592.0, "totPop": 181867.0, "popDen": 2177.956626, "aveHHI": 55447.732796999997, "medHHI": 38035.651202573303 }, "geometry": { "type": "Point", "coordinates": [ -98.225256686985134, 26.189586072698386 ] } },
{ "type": "Feature", "properties": { "venue_id": "43e9ef46eeb62cf319d494c7", "entity_nam": "H-E-B", "lat": 29.789298412010076, "lng": -95.716764893915695, "rank": 148.0, "totRank": null, "visitors": 285736.0, "visits": 1475907.0, "tot_vistr": 67219977.0, "tot_vis": 453659592.0, "totPop": 151423.0, "popDen": 4107.178411, "aveHHI": 93756.86046, "medHHI": 74364.687553534881 }, "geometry": { "type": "Point", "coordinates": [ -95.716764893915695, 29.789298412010076 ] } },
{ "type": "Feature", "properties": { "venue_id": "582cf6c1ad0d2c7f67c178a8", "entity_nam": "H-E-B", "lat": 29.927098713727688, "lng": -95.725255757494679, "rank": 149.0, "totRank": null, "visitors": 235029.0, "visits": 1475819.0, "tot_vistr": 67219977.0, "tot_vis": 453659592.0, "totPop": 144412.0, "popDen": 2133.966813, "aveHHI": 113620.47605700001, "medHHI": 95433.93926020051 }, "geometry": { "type": "Point", "coordinates": [ -95.725255757494679, 29.927098713727688 ] } },
{ "type": "Feature", "properties": { "venue_id": "46c3f0f92a1e56099dc8b0f6", "entity_nam": "H-E-B", "lat": 25.905184860830285, "lng": -97.465210152676789, "rank": 150.0, "totRank": null, "visitors": 128129.0, "visits": 1474417.0, "tot_vistr": 67219977.0, "tot_vis": 453659592.0, "totPop": 41700.0, "popDen": 2757.353325, "aveHHI": 38142.292200999997, "medHHI": 29868.420895025389 }, "geometry": { "type": "Point", "coordinates": [ -97.465210152676789, 25.905184860830285 ] } },
{ "type": "Feature", "properties": { "venue_id": "e8d1fbd97cd44096e47da71a", "entity_nam": "H-E-B", "lat": 31.078937198738149, "lng": -97.654419198081214, "rank": 151.0, "totRank": null, "visitors": 198490.0, "visits": 1471150.0, "tot_vistr": 67219977.0, "tot_vis": 453659592.0, "totPop": 78744.0, "popDen": 2165.371776, "aveHHI": 71005.809682000006, "medHHI": 57738.280473458646 }, "geometry": { "type": "Point", "coordinates": [ -97.654419198081214, 31.078937198738149 ] } },
{ "type": "Feature", "properties": { "venue_id": "b2f384514737b922d9c8e2cf", "entity_nam": "H-E-B", "lat": 30.325641872272886, "lng": -95.500297180137892, "rank": 152.0, "totRank": null, "visitors": 250954.0, "visits": 1459086.0, "tot_vistr": 67219977.0, "tot_vis": 453659592.0, "totPop": 141784.0, "popDen": 932.837224, "aveHHI": 99435.707444, "medHHI": 71414.787866795334 }, "geometry": { "type": "Point", "coordinates": [ -95.500297180137892, 30.325641872272886 ] } },
{ "type": "Feature", "properties": { "venue_id": "3a92d414c459c4d1fd4680e8", "entity_nam": "H-E-B", "lat": 31.443938443278913, "lng": -100.47868293686795, "rank": 153.0, "totRank": null, "visitors": 204891.0, "visits": 1458255.0, "tot_vistr": 67219977.0, "tot_vis": 453659592.0, "totPop": 76968.0, "popDen": 1673.58732, "aveHHI": 64867.92511, "medHHI": 49040.529773862334 }, "geometry": { "type": "Point", "coordinates": [ -100.478682936867955, 31.443938443278913 ] } },
{ "type": "Feature", "properties": { "venue_id": "d07b3ef50d80d884ce94644f", "entity_nam": "H-E-B", "lat": 30.000418614269524, "lng": -95.164481973241465, "rank": 154.0, "totRank": null, "visitors": 239738.0, "visits": 1453873.0, "tot_vistr": 67219977.0, "tot_vis": 453659592.0, "totPop": 109513.0, "popDen": 2923.593973, "aveHHI": 109409.92562, "medHHI": 93782.35431834255 }, "geometry": { "type": "Point", "coordinates": [ -95.164481973241465, 30.000418614269524 ] } },
{ "type": "Feature", "properties": { "venue_id": "793771fb2618d28e245114b8", "entity_nam": "H-E-B", "lat": 30.559112118812678, "lng": -96.260891533928032, "rank": 155.0, "totRank": null, "visitors": 223391.0, "visits": 1452731.0, "tot_vistr": 67219977.0, "tot_vis": 453659592.0, "totPop": 132148.0, "popDen": 1406.768579, "aveHHI": 68677.581848999995, "medHHI": 45294.818470002378 }, "geometry": { "type": "Point", "coordinates": [ -96.260891533928032, 30.559112118812678 ] } },
{ "type": "Feature", "properties": { "venue_id": "10e0f647df8ef9e4858cf0df", "entity_nam": "H-E-B", "lat": 29.397234876526856, "lng": -94.94958665503826, "rank": 156.0, "totRank": null, "visitors": 190542.0, "visits": 1448207.0, "tot_vistr": 67219977.0, "tot_vis": 453659592.0, "totPop": 57022.0, "popDen": 1271.132726, "aveHHI": 67248.61468, "medHHI": 48429.07096431536 }, "geometry": { "type": "Point", "coordinates": [ -94.94958665503826, 29.397234876526856 ] } },
{ "type": "Feature", "properties": { "venue_id": "cf820bdcfca1267e6ecf271a", "entity_nam": "H-E-B", "lat": 27.542353488400007, "lng": -99.500904788195498, "rank": 157.0, "totRank": null, "visitors": 188189.0, "visits": 1447389.0, "tot_vistr": 67219977.0, "tot_vis": 453659592.0, "totPop": 66611.0, "popDen": 6888.863775, "aveHHI": 41480.713438, "medHHI": 29662.586971390116 }, "geometry": { "type": "Point", "coordinates": [ -99.500904788195498, 27.542353488400007 ] } },
{ "type": "Feature", "properties": { "venue_id": "a5c10aac2b28e0b4132fbd6e", "entity_nam": "H-E-B", "lat": 29.738106082471589, "lng": -95.40277238492574, "rank": 158.0, "totRank": null, "visitors": 261379.0, "visits": 1442987.0, "tot_vistr": 67219977.0, "tot_vis": 453659592.0, "totPop": 217196.0, "popDen": 7073.76054, "aveHHI": 126373.84433199999, "medHHI": 75846.456394241846 }, "geometry": { "type": "Point", "coordinates": [ -95.40277238492574, 29.738106082471589 ] } },
{ "type": "Feature", "properties": { "venue_id": "bf3fdd0ccc356913f3ddbbd2", "entity_nam": "H-E-B", "lat": 30.175363058346782, "lng": -97.825062739671466, "rank": 159.0, "totRank": null, "visitors": 186700.0, "visits": 1441201.0, "tot_vistr": 67219977.0, "tot_vis": 453659592.0, "totPop": 65048.0, "popDen": 3899.80292, "aveHHI": 90939.73492, "medHHI": 76576.023575012936 }, "geometry": { "type": "Point", "coordinates": [ -97.825062739671466, 30.175363058346782 ] } },
{ "type": "Feature", "properties": { "venue_id": "cffb535cee4ef1e52aedf570", "entity_nam": "H-E-B", "lat": 31.33772571180419, "lng": -94.719323524208107, "rank": 160.0, "totRank": null, "visitors": 185343.0, "visits": 1440463.0, "tot_vistr": 67219977.0, "tot_vis": 453659592.0, "totPop": 55902.0, "popDen": 743.761531, "aveHHI": 57742.310415, "medHHI": 45790.322645823784 }, "geometry": { "type": "Point", "coordinates": [ -94.719323524208107, 31.33772571180419 ] } },
{ "type": "Feature", "properties": { "venue_id": "b11813797a8d057af34802f3", "entity_nam": "H-E-B", "lat": 29.727064328541402, "lng": -95.427180204871775, "rank": 161.0, "totRank": null, "visitors": 283062.0, "visits": 1440217.0, "tot_vistr": 67219977.0, "tot_vis": 453659592.0, "totPop": 238165.0, "popDen": 6681.80173, "aveHHI": 136695.609707, "medHHI": 75724.993743947343 }, "geometry": { "type": "Point", "coordinates": [ -95.427180204871775, 29.727064328541402 ] } },
{ "type": "Feature", "properties": { "venue_id": "258e12c80a6fc41c41b845b6", "entity_nam": "H-E-B", "lat": 29.578552272699827, "lng": -95.582713195769244, "rank": 162.0, "totRank": null, "visitors": 225843.0, "visits": 1428454.0, "tot_vistr": 67219977.0, "tot_vis": 453659592.0, "totPop": 102764.0, "popDen": 2901.556353, "aveHHI": 110063.86100200001, "medHHI": 83119.449741849909 }, "geometry": { "type": "Point", "coordinates": [ -95.582713195769244, 29.578552272699827 ] } },
{ "type": "Feature", "properties": { "venue_id": "810ae7cedb8b35024a25a104", "entity_nam": "H-E-B", "lat": 30.107717000142305, "lng": -95.387524342538413, "rank": 163.0, "totRank": null, "visitors": 207085.0, "visits": 1425868.0, "tot_vistr": 67219977.0, "tot_vis": 453659592.0, "totPop": 81990.0, "popDen": 1694.82282, "aveHHI": 116892.966974, "medHHI": 99361.982142526234 }, "geometry": { "type": "Point", "coordinates": [ -95.387524342538413, 30.107717000142305 ] } },
{ "type": "Feature", "properties": { "venue_id": "c31be242b0a95172e6d1ed5b", "entity_nam": "H-E-B", "lat": 32.347984958953205, "lng": -97.394607265077383, "rank": 164.0, "totRank": null, "visitors": 167393.0, "visits": 1422474.0, "tot_vistr": 67219977.0, "tot_vis": 453659592.0, "totPop": 54959.0, "popDen": 475.84822, "aveHHI": 72935.123485000004, "medHHI": 54711.70074650184 }, "geometry": { "type": "Point", "coordinates": [ -97.394607265077383, 32.347984958953205 ] } },
{ "type": "Feature", "properties": { "venue_id": "d3500239aad63ee70da06e16", "entity_nam": "H-E-B", "lat": 27.887154804908022, "lng": -97.316751191047004, "rank": 165.0, "totRank": null, "visitors": 168941.0, "visits": 1418871.0, "tot_vistr": 67219977.0, "tot_vis": 453659592.0, "totPop": 38944.0, "popDen": 915.842448, "aveHHI": 73702.262342999995, "medHHI": 53476.430578372114 }, "geometry": { "type": "Point", "coordinates": [ -97.316751191047004, 27.887154804908022 ] } },
{ "type": "Feature", "properties": { "venue_id": "63ad8ac6edc6338ec24d9085", "entity_nam": "H-E-B", "lat": 29.911016528269467, "lng": -95.586082141928969, "rank": 166.0, "totRank": null, "visitors": 232723.0, "visits": 1409347.0, "tot_vistr": 67219977.0, "tot_vis": 453659592.0, "totPop": 110231.0, "popDen": 4414.460656, "aveHHI": 86551.741341999994, "medHHI": 65255.013173858613 }, "geometry": { "type": "Point", "coordinates": [ -95.586082141928969, 29.911016528269467 ] } },
{ "type": "Feature", "properties": { "venue_id": "f75d483222b94e2994a1491d", "entity_nam": "H-E-B", "lat": 29.796145106648829, "lng": -98.43000772022738, "rank": 167.0, "totRank": null, "visitors": 184967.0, "visits": 1408861.0, "tot_vistr": 67219977.0, "tot_vis": 453659592.0, "totPop": 79793.0, "popDen": 438.594537, "aveHHI": 92620.941825999995, "medHHI": 66491.194638644854 }, "geometry": { "type": "Point", "coordinates": [ -98.43000772022738, 29.796145106648829 ] } },
{ "type": "Feature", "properties": { "venue_id": "8bc156bbc0c47ddb6742de55", "entity_nam": "H-E-B", "lat": 30.068654371296734, "lng": -95.449884661273472, "rank": 168.0, "totRank": null, "visitors": 271773.0, "visits": 1397878.0, "tot_vistr": 67219977.0, "tot_vis": 453659592.0, "totPop": 183403.0, "popDen": 3656.594874, "aveHHI": 76479.971936000002, "medHHI": 58275.116717131401 }, "geometry": { "type": "Point", "coordinates": [ -95.449884661273472, 30.068654371296734 ] } },
{ "type": "Feature", "properties": { "venue_id": "b451c2b0c094931046351e7a", "entity_nam": "H-E-B", "lat": 30.500640543424296, "lng": -97.722998632156617, "rank": 169.0, "totRank": null, "visitors": 159608.0, "visits": 1393681.0, "tot_vistr": 67219977.0, "tot_vis": 453659592.0, "totPop": 38470.0, "popDen": 2574.672439, "aveHHI": 147429.83277000001, "medHHI": 125575.04165552605 }, "geometry": { "type": "Point", "coordinates": [ -97.722998632156617, 30.500640543424296 ] } },
{ "type": "Feature", "properties": { "venue_id": "cf1dad7528099b8006804adf", "entity_nam": "H-E-B", "lat": 27.706048446631076, "lng": -97.372336757962287, "rank": 170.0, "totRank": null, "visitors": 304851.0, "visits": 1392611.0, "tot_vistr": 67219977.0, "tot_vis": 453659592.0, "totPop": 124623.0, "popDen": 4606.187017, "aveHHI": 70932.557883000001, "medHHI": 57423.551515210551 }, "geometry": { "type": "Point", "coordinates": [ -97.372336757962287, 27.706048446631076 ] } },
{ "type": "Feature", "properties": { "venue_id": "5544bd4634872790530967f3", "entity_nam": "H-E-B", "lat": 28.400217359500012, "lng": -97.746139280324826, "rank": 171.0, "totRank": null, "visitors": 107228.0, "visits": 1382801.0, "tot_vistr": 67219977.0, "tot_vis": 453659592.0, "totPop": 12314.0, "popDen": 1543.272749, "aveHHI": 49437.1807, "medHHI": 34939.57664565312 }, "geometry": { "type": "Point", "coordinates": [ -97.746139280324826, 28.400217359500012 ] } },
{ "type": "Feature", "properties": { "venue_id": "1ae0baf7c36560030b87df9e", "entity_nam": "H-E-B", "lat": 30.364681993855143, "lng": -97.697967195839794, "rank": 172.0, "totRank": null, "visitors": 184476.0, "visits": 1380998.0, "tot_vistr": 67219977.0, "tot_vis": 453659592.0, "totPop": 90189.0, "popDen": 7474.873957, "aveHHI": 60383.237978999998, "medHHI": 46047.56221276187 }, "geometry": { "type": "Point", "coordinates": [ -97.697967195839794, 30.364681993855143 ] } },
{ "type": "Feature", "properties": { "venue_id": "90325e4de6e8824d8b81fc49", "entity_nam": "H-E-B", "lat": 29.509115888900006, "lng": -98.369872907164847, "rank": 173.0, "totRank": null, "visitors": 170690.0, "visits": 1375483.0, "tot_vistr": 67219977.0, "tot_vis": 453659592.0, "totPop": 41406.0, "popDen": 4053.863652, "aveHHI": 64576.719459, "medHHI": 52471.305825529824 }, "geometry": { "type": "Point", "coordinates": [ -98.369872907164847, 29.509115888900006 ] } },
{ "type": "Feature", "properties": { "venue_id": "aa16d8667279422ee3b14c4a", "entity_nam": "H-E-B", "lat": 29.565023200370959, "lng": -95.685282522997667, "rank": 174.0, "totRank": null, "visitors": 205906.0, "visits": 1375101.0, "tot_vistr": 67219977.0, "tot_vis": 453659592.0, "totPop": 69433.0, "popDen": 549.029606, "aveHHI": 128110.188964, "medHHI": 100624.74400185084 }, "geometry": { "type": "Point", "coordinates": [ -95.685282522997667, 29.565023200370959 ] } },
{ "type": "Feature", "properties": { "venue_id": "8d84b9442362a51b08ae0c45", "entity_nam": "H-E-B", "lat": 28.805466867723361, "lng": -96.988395958090607, "rank": 175.0, "totRank": null, "visitors": 141318.0, "visits": 1374165.0, "tot_vistr": 67219977.0, "tot_vis": 453659592.0, "totPop": 42150.0, "popDen": 2094.602632, "aveHHI": 57770.524170999997, "medHHI": 43180.645398243498 }, "geometry": { "type": "Point", "coordinates": [ -96.988395958090607, 28.805466867723361 ] } },
{ "type": "Feature", "properties": { "venue_id": "264578d70f9c644b8951d633", "entity_nam": "H-E-B", "lat": 29.82140139766523, "lng": -95.547381606256153, "rank": 176.0, "totRank": null, "visitors": 202878.0, "visits": 1371638.0, "tot_vistr": 67219977.0, "tot_vis": 453659592.0, "totPop": 93086.0, "popDen": 4240.881622, "aveHHI": 71171.613763999994, "medHHI": 50764.73042510778 }, "geometry": { "type": "Point", "coordinates": [ -95.547381606256153, 29.82140139766523 ] } },
{ "type": "Feature", "properties": { "venue_id": "c9b1b461790c3038dbb5557a", "entity_nam": "H-E-B", "lat": 29.995377434893225, "lng": -95.576231129801286, "rank": 177.0, "totRank": null, "visitors": 307325.0, "visits": 1369967.0, "tot_vistr": 67219977.0, "tot_vis": 453659592.0, "totPop": 268553.0, "popDen": 3984.982979, "aveHHI": 92415.418967000005, "medHHI": 68692.190328006196 }, "geometry": { "type": "Point", "coordinates": [ -95.576231129801286, 29.995377434893225 ] } },
{ "type": "Feature", "properties": { "venue_id": "3d6876ef3c71d62284dea527", "entity_nam": "H-E-B", "lat": 29.491021582994673, "lng": -98.702727208487346, "rank": 178.0, "totRank": null, "visitors": 295368.0, "visits": 1369241.0, "tot_vistr": 67219977.0, "tot_vis": 453659592.0, "totPop": 171367.0, "popDen": 4369.460676, "aveHHI": 83876.967407000004, "medHHI": 73651.184794574321 }, "geometry": { "type": "Point", "coordinates": [ -98.702727208487346, 29.491021582994673 ] } },
{ "type": "Feature", "properties": { "venue_id": "8be06b72e3dce252d81b77b5", "entity_nam": "H-E-B", "lat": 26.203631312839114, "lng": -97.677475625043385, "rank": 179.0, "totRank": null, "visitors": 135950.0, "visits": 1367512.0, "tot_vistr": 67219977.0, "tot_vis": 453659592.0, "totPop": 43777.0, "popDen": 2039.052141, "aveHHI": 55797.95805, "medHHI": 39240.332458581885 }, "geometry": { "type": "Point", "coordinates": [ -97.677475625043385, 26.203631312839114 ] } },
{ "type": "Feature", "properties": { "venue_id": "62ac25efc01f4f1b29f6624a", "entity_nam": "H-E-B", "lat": 30.438007796209853, "lng": -97.611553231659215, "rank": 180.0, "totRank": null, "visitors": 208508.0, "visits": 1352118.0, "tot_vistr": 67219977.0, "tot_vis": 453659592.0, "totPop": 91019.0, "popDen": 2382.080536, "aveHHI": 98928.388762999995, "medHHI": 85502.525194129354 }, "geometry": { "type": "Point", "coordinates": [ -97.611553231659215, 30.438007796209853 ] } },
{ "type": "Feature", "properties": { "venue_id": "a74c6356f3a32dc90e3ac999", "entity_nam": "H-E-B", "lat": 30.335640102827423, "lng": -95.46528351525366, "rank": 181.0, "totRank": null, "visitors": 198759.0, "visits": 1351607.0, "tot_vistr": 67219977.0, "tot_vis": 453659592.0, "totPop": 95911.0, "popDen": 1122.241009, "aveHHI": 66096.561812, "medHHI": 50641.418326485815 }, "geometry": { "type": "Point", "coordinates": [ -95.46528351525366, 30.335640102827423 ] } },
{ "type": "Feature", "properties": { "venue_id": "4a32a848fc41ea83c6a8d294", "entity_nam": "H-E-B", "lat": 32.457635058342966, "lng": -97.729743766914879, "rank": 182.0, "totRank": null, "visitors": 196303.0, "visits": 1344911.0, "tot_vistr": 67219977.0, "tot_vis": 453659592.0, "totPop": 45738.0, "popDen": 581.967875, "aveHHI": 89030.618252999993, "medHHI": 66561.507650150568 }, "geometry": { "type": "Point", "coordinates": [ -97.729743766914879, 32.457635058342966 ] } },
{ "type": "Feature", "properties": { "venue_id": "12ee9fbb0e64e84ca4e9b694", "entity_nam": "H-E-B", "lat": 29.773374405348019, "lng": -95.822430904594853, "rank": 183.0, "totRank": null, "visitors": 276665.0, "visits": 1342985.0, "tot_vistr": 67219977.0, "tot_vis": 453659592.0, "totPop": 275301.0, "popDen": 1683.814654, "aveHHI": 120781.80833699999, "medHHI": 97346.961061085385 }, "geometry": { "type": "Point", "coordinates": [ -95.822430904594853, 29.773374405348019 ] } },
{ "type": "Feature", "properties": { "venue_id": "165105d46edd101f12fedeee", "entity_nam": "H-E-B", "lat": 29.957542355108366, "lng": -95.673153254931847, "rank": 184.0, "totRank": null, "visitors": 264800.0, "visits": 1333542.0, "tot_vistr": 67219977.0, "tot_vis": 453659592.0, "totPop": 136912.0, "popDen": 3594.282853, "aveHHI": 113417.270491, "medHHI": 95210.71935244312 }, "geometry": { "type": "Point", "coordinates": [ -95.673153254931847, 29.957542355108366 ] } },
{ "type": "Feature", "properties": { "venue_id": "6c7a6d40eac4501ff6971418", "entity_nam": "H-E-B", "lat": 28.038759793600676, "lng": -97.044097413723932, "rank": 185.0, "totRank": null, "visitors": 253079.0, "visits": 1321781.0, "tot_vistr": 67219977.0, "tot_vis": 453659592.0, "totPop": 16586.0, "popDen": 1163.625209, "aveHHI": 76251.986378999994, "medHHI": 47527.776623051512 }, "geometry": { "type": "Point", "coordinates": [ -97.044097413723932, 28.038759793600676 ] } },
{ "type": "Feature", "properties": { "venue_id": "508d19d4372b5590cbc4d619", "entity_nam": "H-E-B", "lat": 30.344798704692632, "lng": -97.968270961833767, "rank": 186.0, "totRank": null, "visitors": 171716.0, "visits": 1319352.0, "tot_vistr": 67219977.0, "tot_vis": 453659592.0, "totPop": 27632.0, "popDen": 1105.272948, "aveHHI": 141141.00474599999, "medHHI": 109304.77428963559 }, "geometry": { "type": "Point", "coordinates": [ -97.968270961833767, 30.344798704692632 ] } },
{ "type": "Feature", "properties": { "venue_id": "ec71cf0b8cd9729f836ab4d7", "entity_nam": "H-E-B", "lat": 26.232674053946685, "lng": -98.22359089139907, "rank": 187.0, "totRank": null, "visitors": 177345.0, "visits": 1310961.0, "tot_vistr": 67219977.0, "tot_vis": 453659592.0, "totPop": 81826.0, "popDen": 4739.701644, "aveHHI": 65058.086351999998, "medHHI": 46373.025258165551 }, "geometry": { "type": "Point", "coordinates": [ -98.22359089139907, 26.232674053946685 ] } },
{ "type": "Feature", "properties": { "venue_id": "197da1f32a94490a180e73e4", "entity_nam": "H-E-B", "lat": 29.142440608339683, "lng": -98.15727693187462, "rank": 188.0, "totRank": null, "visitors": 128057.0, "visits": 1310593.0, "tot_vistr": 67219977.0, "tot_vis": 453659592.0, "totPop": 34540.0, "popDen": 209.478297, "aveHHI": 75355.092764000001, "medHHI": 59673.056075447843 }, "geometry": { "type": "Point", "coordinates": [ -98.15727693187462, 29.142440608339683 ] } },
{ "type": "Feature", "properties": { "venue_id": "99c63eef4f7ebf01e47c7733", "entity_nam": "H-E-B", "lat": 30.522256089749579, "lng": -97.828398220106962, "rank": 189.0, "totRank": null, "visitors": 227255.0, "visits": 1308731.0, "tot_vistr": 67219977.0, "tot_vis": 453659592.0, "totPop": 90687.0, "popDen": 2884.213639, "aveHHI": 106416.424535, "medHHI": 95227.061454682931 }, "geometry": { "type": "Point", "coordinates": [ -97.828398220106962, 30.522256089749579 ] } },
{ "type": "Feature", "properties": { "venue_id": "10c7b55019b5354a210538f1", "entity_nam": "H-E-B", "lat": 29.756986637179878, "lng": -95.750437538221036, "rank": 190.0, "totRank": null, "visitors": 182496.0, "visits": 1300519.0, "tot_vistr": 67219977.0, "tot_vis": 453659592.0, "totPop": 61977.0, "popDen": 3921.648193, "aveHHI": 136763.889692, "medHHI": 104526.06645087778 }, "geometry": { "type": "Point", "coordinates": [ -95.750437538221036, 29.756986637179878 ] } },
{ "type": "Feature", "properties": { "venue_id": "641184aff4cd650933c7f4a0", "entity_nam": "H-E-B", "lat": 29.847400370793057, "lng": -95.647682591888653, "rank": 191.0, "totRank": null, "visitors": 206153.0, "visits": 1293417.0, "tot_vistr": 67219977.0, "tot_vis": 453659592.0, "totPop": 86211.0, "popDen": 6495.333193, "aveHHI": 77626.925776999997, "medHHI": 66013.012512834437 }, "geometry": { "type": "Point", "coordinates": [ -95.647682591888653, 29.847400370793057 ] } },
{ "type": "Feature", "properties": { "venue_id": "dc7b8985b17599dab5fa23b8", "entity_nam": "H-E-B", "lat": 30.022359943853321, "lng": -95.527411467150387, "rank": 192.0, "totRank": null, "visitors": 242258.0, "visits": 1281744.0, "tot_vistr": 67219977.0, "tot_vis": 453659592.0, "totPop": 142698.0, "popDen": 4695.061151, "aveHHI": 97107.495918999994, "medHHI": 71899.617519712236 }, "geometry": { "type": "Point", "coordinates": [ -95.527411467150387, 30.022359943853321 ] } },
{ "type": "Feature", "properties": { "venue_id": "93288ebeb51b65a07a8e8dce", "entity_nam": "H-E-B", "lat": 30.690235997022178, "lng": -96.371666671406615, "rank": 193.0, "totRank": null, "visitors": 161512.0, "visits": 1280701.0, "tot_vistr": 67219977.0, "tot_vis": 453659592.0, "totPop": 62788.0, "popDen": 1194.164055, "aveHHI": 52190.323744000001, "medHHI": 38343.35009096979 }, "geometry": { "type": "Point", "coordinates": [ -96.371666671406615, 30.690235997022178 ] } },
{ "type": "Feature", "properties": { "venue_id": "a34a1ab8e5b3271fa599f3f7", "entity_nam": "H-E-B", "lat": 29.358971057988775, "lng": -98.138195094648765, "rank": 194.0, "totRank": null, "visitors": 121709.0, "visits": 1272033.0, "tot_vistr": 67219977.0, "tot_vis": 453659592.0, "totPop": 41539.0, "popDen": 246.281227, "aveHHI": 83471.73391, "medHHI": 66032.832514062058 }, "geometry": { "type": "Point", "coordinates": [ -98.138195094648765, 29.358971057988775 ] } },
{ "type": "Feature", "properties": { "venue_id": "e7285183cd63d4f5ecf4f7b8", "entity_nam": "H-E-B", "lat": 29.662723582149614, "lng": -98.499942949553159, "rank": 195.0, "totRank": null, "visitors": 143628.0, "visits": 1270377.0, "tot_vistr": 67219977.0, "tot_vis": 453659592.0, "totPop": 38266.0, "popDen": 2870.818918, "aveHHI": 131976.278119, "medHHI": 107811.57008831966 }, "geometry": { "type": "Point", "coordinates": [ -98.499942949553159, 29.662723582149614 ] } },
{ "type": "Feature", "properties": { "venue_id": "15ce00dc3568b032411e5855", "entity_nam": "H-E-B", "lat": 30.453656089954297, "lng": -97.82523415053187, "rank": 196.0, "totRank": null, "visitors": 176695.0, "visits": 1268119.0, "tot_vistr": 67219977.0, "tot_vis": 453659592.0, "totPop": 30096.0, "popDen": 4406.107618, "aveHHI": 127091.211289, "medHHI": 98407.812797923936 }, "geometry": { "type": "Point", "coordinates": [ -97.82523415053187, 30.453656089954297 ] } },
{ "type": "Feature", "properties": { "venue_id": "a67b873531141a3660b0a329", "entity_nam": "H-E-B", "lat": 30.223173491902912, "lng": -95.584656675969683, "rank": 197.0, "totRank": null, "visitors": 188429.0, "visits": 1261533.0, "tot_vistr": 67219977.0, "tot_vis": 453659592.0, "totPop": 119584.0, "popDen": 857.824414, "aveHHI": 149755.83966100001, "medHHI": 109597.67110869427 }, "geometry": { "type": "Point", "coordinates": [ -95.584656675969683, 30.223173491902912 ] } },
{ "type": "Feature", "properties": { "venue_id": "a1c4af77ade13d392f16fd1e", "entity_nam": "H-E-B", "lat": 28.982624295396487, "lng": -95.957661754822823, "rank": 198.0, "totRank": null, "visitors": 110586.0, "visits": 1261276.0, "tot_vistr": 67219977.0, "tot_vis": 453659592.0, "totPop": 24842.0, "popDen": 90.355382, "aveHHI": 66234.125921, "medHHI": 50688.072998657532 }, "geometry": { "type": "Point", "coordinates": [ -95.957661754822823, 28.982624295396487 ] } },
{ "type": "Feature", "properties": { "venue_id": "70f5bb3395275651ac3c17e3", "entity_nam": "H-E-B", "lat": 29.713031505523251, "lng": -98.160472461432221, "rank": 199.0, "totRank": null, "visitors": 229962.0, "visits": 1259362.0, "tot_vistr": 67219977.0, "tot_vis": 453659592.0, "totPop": 75066.0, "popDen": 1299.774862, "aveHHI": 89502.0287, "medHHI": 72511.570079509023 }, "geometry": { "type": "Point", "coordinates": [ -98.160472461432221, 29.713031505523251 ] } },
{ "type": "Feature", "properties": { "venue_id": "a61b43729da3cb9c4fa65417", "entity_nam": "H-E-B", "lat": 26.153905466345332, "lng": -97.912864233766499, "rank": 200.0, "totRank": null, "visitors": 118617.0, "visits": 1257641.0, "tot_vistr": 67219977.0, "tot_vis": 453659592.0, "totPop": 16899.0, "popDen": 1574.135718, "aveHHI": 45175.405568000002, "medHHI": 28950.382409189962 }, "geometry": { "type": "Point", "coordinates": [ -97.912864233766499, 26.153905466345332 ] } },
{ "type": "Feature", "properties": { "venue_id": "9d055b755de75499329a78eb", "entity_nam": "H-E-B", "lat": 30.088611922368429, "lng": -95.629248827800012, "rank": 201.0, "totRank": null, "visitors": 209055.0, "visits": 1237916.0, "tot_vistr": 67219977.0, "tot_vis": 453659592.0, "totPop": 177050.0, "popDen": 1456.499761, "aveHHI": 98457.436801000003, "medHHI": 77816.859398476532 }, "geometry": { "type": "Point", "coordinates": [ -95.629248827800012, 30.088611922368429 ] } },
{ "type": "Feature", "properties": { "venue_id": "1763b7944da0017d7f37913b", "entity_nam": "H-E-B", "lat": 30.291582980319184, "lng": -97.825003187989651, "rank": 202.0, "totRank": null, "visitors": 194140.0, "visits": 1237686.0, "tot_vistr": 67219977.0, "tot_vis": 453659592.0, "totPop": 66413.0, "popDen": 1717.494335, "aveHHI": 173957.999457, "medHHI": 102421.71013556603 }, "geometry": { "type": "Point", "coordinates": [ -97.825003187989651, 30.291582980319184 ] } },
{ "type": "Feature", "properties": { "venue_id": "199aed3f9ec783701924131b", "entity_nam": "H-E-B", "lat": 27.730053572849855, "lng": -97.370660293711339, "rank": 203.0, "totRank": null, "visitors": 166011.0, "visits": 1235436.0, "tot_vistr": 67219977.0, "tot_vis": 453659592.0, "totPop": 66275.0, "popDen": 4773.254895, "aveHHI": 71711.873076999997, "medHHI": 52885.481953619907 }, "geometry": { "type": "Point", "coordinates": [ -97.370660293711339, 27.730053572849855 ] } },
{ "type": "Feature", "properties": { "venue_id": "4a88ba3da878bbfea24a9296", "entity_nam": "H-E-B", "lat": 26.181605077542578, "lng": -97.681608189488244, "rank": 204.0, "totRank": null, "visitors": 164819.0, "visits": 1233569.0, "tot_vistr": 67219977.0, "tot_vis": 453659592.0, "totPop": 66883.0, "popDen": 2122.30499, "aveHHI": 52448.530859, "medHHI": 37606.131821458621 }, "geometry": { "type": "Point", "coordinates": [ -97.681608189488244, 26.181605077542578 ] } },
{ "type": "Feature", "properties": { "venue_id": "4bb9339d64e58afd5fd4e6d6", "entity_nam": "H-E-B", "lat": 30.681531554307757, "lng": -97.719682519558134, "rank": 205.0, "totRank": null, "visitors": 147865.0, "visits": 1230957.0, "tot_vistr": 67219977.0, "tot_vis": 453659592.0, "totPop": 62655.0, "popDen": 1071.299975, "aveHHI": 100104.714378, "medHHI": 76801.605679555898 }, "geometry": { "type": "Point", "coordinates": [ -97.719682519558134, 30.681531554307757 ] } },
{ "type": "Feature", "properties": { "venue_id": "c2347e72e00997ed6800014c", "entity_nam": "H-E-B", "lat": 29.712766914201776, "lng": -95.775893535066004, "rank": 206.0, "totRank": null, "visitors": 202989.0, "visits": 1229264.0, "tot_vistr": 67219977.0, "tot_vis": 453659592.0, "totPop": 81175.0, "popDen": 3695.623961, "aveHHI": 145852.01008800001, "medHHI": 116376.27424938921 }, "geometry": { "type": "Point", "coordinates": [ -95.775893535066004, 29.712766914201776 ] } },
{ "type": "Feature", "properties": { "venue_id": "c2e12929a2360fce83da572e", "entity_nam": "H-E-B", "lat": 29.492942853436077, "lng": -98.431153989368823, "rank": 207.0, "totRank": null, "visitors": 200191.0, "visits": 1228477.0, "tot_vistr": 67219977.0, "tot_vis": 453659592.0, "totPop": 96820.0, "popDen": 3931.561307, "aveHHI": 83291.170436999993, "medHHI": 51383.285254661037 }, "geometry": { "type": "Point", "coordinates": [ -98.431153989368823, 29.492942853436077 ] } },
{ "type": "Feature", "properties": { "venue_id": "c358dd5d34132512fe683840", "entity_nam": "H-E-B", "lat": 30.20621193199754, "lng": -95.42528356189834, "rank": 208.0, "totRank": null, "visitors": 178584.0, "visits": 1227909.0, "tot_vistr": 67219977.0, "tot_vis": 453659592.0, "totPop": 139240.0, "popDen": 1446.898496, "aveHHI": 97169.749742999993, "medHHI": 73680.525269582446 }, "geometry": { "type": "Point", "coordinates": [ -95.42528356189834, 30.20621193199754 ] } },
{ "type": "Feature", "properties": { "venue_id": "278ff3d58638f061622f4cf4", "entity_nam": "H-E-B", "lat": 29.49822841627223, "lng": -98.468525554873594, "rank": 209.0, "totRank": null, "visitors": 217606.0, "visits": 1225995.0, "tot_vistr": 67219977.0, "tot_vis": 453659592.0, "totPop": 98439.0, "popDen": 3426.57629, "aveHHI": 105682.862769, "medHHI": 60319.378553505951 }, "geometry": { "type": "Point", "coordinates": [ -98.468525554873594, 29.49822841627223 ] } },
{ "type": "Feature", "properties": { "venue_id": "6acd952f2568ce1c5875cd52", "entity_nam": "H-E-B", "lat": 26.071444537983822, "lng": -97.227150616624698, "rank": 210.0, "totRank": null, "visitors": 508783.0, "visits": 1225618.0, "tot_vistr": 67219977.0, "tot_vis": 453659592.0, "totPop": 76536.0, "popDen": 775.425456, "aveHHI": 50744.131499000003, "medHHI": 36559.906464215303 }, "geometry": { "type": "Point", "coordinates": [ -97.227150616624698, 26.071444537983822 ] } },