{
"type": "FeatureCollection",
"crs": { "type": "name", "properties": { "name": "urn:ogc:def:crs:OGC:1.3:CRS84" } },
"features": [
{ "type": "Feature", "properties": { "venue_id": "133d54544812498c7ddf4fa4", "entity_add": "1205 Shaw Ave, Clovis, CA", "lat": 36.80997447289171, "lng": -119.69387194840489, "entity_nam": "Party City" }, "geometry": { "type": "Point", "coordinates": [ -119.69387194840489, 36.80997447289171 ] } },
{ "type": "Feature", "properties": { "venue_id": "11951158d578b76088232588", "entity_add": "7555 Market Place Dr, Aurora, OH", "lat": 41.349925473796119, "lng": -81.385784014079476, "entity_nam": "Party City" }, "geometry": { "type": "Point", "coordinates": [ -81.385784014079476, 41.349925473796119 ] } },
{ "type": "Feature", "properties": { "venue_id": "136703bf8686bc82742e20ee", "entity_add": "5466 W Grand Pkwy S, Richmond, TX", "lat": 29.694199221609903, "lng": -95.776378549106852, "entity_nam": "Party City" }, "geometry": { "type": "Point", "coordinates": [ -95.776378549106852, 29.694199221609903 ] } },
{ "type": "Feature", "properties": { "venue_id": "1318bfcde81109dec275b658", "entity_add": "5001 Sergeant Rd, Sioux City, IA", "lat": 42.447579551282971, "lng": -96.343731087870879, "entity_nam": "Party City" }, "geometry": { "type": "Point", "coordinates": [ -96.343731087870879, 42.447579551282971 ] } },
{ "type": "Feature", "properties": { "venue_id": "133fb13fc88964cdda6464a6", "entity_add": "1242 E Main St, Carbondale, IL", "lat": 37.733276261704766, "lng": -89.193328697642286, "entity_nam": "Party City" }, "geometry": { "type": "Point", "coordinates": [ -89.193328697642286, 37.733276261704766 ] } },
{ "type": "Feature", "properties": { "venue_id": "137383131152aabd10d94318", "entity_add": "4408 Milestrip Rd, Blasdell, NY", "lat": 42.790596514644335, "lng": -78.815108985595487, "entity_nam": "Party City" }, "geometry": { "type": "Point", "coordinates": [ -78.815108985595487, 42.790596514644335 ] } },
{ "type": "Feature", "properties": { "venue_id": "112151dd89a1fa4b43b0b74d", "entity_add": "120 Sunrise Hwy, Patchogue, NY", "lat": 40.779583799798452, "lng": -73.002045745366715, "entity_nam": "Party City" }, "geometry": { "type": "Point", "coordinates": [ -73.002045745366715, 40.779583799798452 ] } },
{ "type": "Feature", "properties": { "venue_id": "1393460403f910e6b17fb7c6", "entity_add": "305 E Lewis And Clark Pkwy, Clarksville, IN", "lat": 38.310583700127538, "lng": -85.771188288787513, "entity_nam": "Party City" }, "geometry": { "type": "Point", "coordinates": [ -85.771188288787513, 38.310583700127538 ] } },
{ "type": "Feature", "properties": { "venue_id": "103f8582bb84f8fa1eeaccdf", "entity_add": "553 Bullsboro Dr, Newnan, GA", "lat": 33.39252387192488, "lng": -84.758847280085476, "entity_nam": "Party City" }, "geometry": { "type": "Point", "coordinates": [ -84.758847280085476, 33.39252387192488 ] } },
{ "type": "Feature", "properties": { "venue_id": "13408e24793910ad02fd4e71", "entity_add": "4801 S Broadway Ave, Tyler, TX", "lat": 32.296659057712411, "lng": -95.303220899212135, "entity_nam": "Party City" }, "geometry": { "type": "Point", "coordinates": [ -95.303220899212135, 32.296659057712411 ] } },
{ "type": "Feature", "properties": { "venue_id": "109ed66f20a2346fa58661e8", "entity_add": "1240 S Hover St Ste 300, Longmont, CO", "lat": 40.146539703958226, "lng": -105.12748717722968, "entity_nam": "Party City" }, "geometry": { "type": "Point", "coordinates": [ -105.127487177229682, 40.146539703958226 ] } },
{ "type": "Feature", "properties": { "venue_id": "1552b68f861209dddbe4295f", "entity_add": "3401 N Miami Ave, Miami, FL", "lat": 25.808978574899612, "lng": -80.193794781016194, "entity_nam": "Party City" }, "geometry": { "type": "Point", "coordinates": [ -80.193794781016194, 25.808978574899612 ] } },
{ "type": "Feature", "properties": { "venue_id": "153020727a7549589d41b63c", "entity_add": "230 Upland Sq Dr, Pottstown, PA", "lat": 40.266211301267326, "lng": -75.652279571365, "entity_nam": "Party City" }, "geometry": { "type": "Point", "coordinates": [ -75.652279571365, 40.266211301267326 ] } },
{ "type": "Feature", "properties": { "venue_id": "150f2c2de085adc3c568965e", "entity_add": "3015 N Tegner Rd, Turlock, CA", "lat": 37.520238914062183, "lng": -120.88963017633559, "entity_nam": "Party City" }, "geometry": { "type": "Point", "coordinates": [ -120.889630176335586, 37.520238914062183 ] } },
{ "type": "Feature", "properties": { "venue_id": "1068b4277c6cd406f49d0cb9", "entity_add": "5001 N Big Hollow Rd, Peoria, IL", "lat": 40.747940918220316, "lng": -89.636370315577082, "entity_nam": "Party City" }, "geometry": { "type": "Point", "coordinates": [ -89.636370315577082, 40.747940918220316 ] } },
{ "type": "Feature", "properties": { "venue_id": "10957437844d82fed84c495c", "entity_add": "19927 Rinaldi St, Porter Ranch, CA", "lat": 34.277460604880297, "lng": -118.56845932412487, "entity_nam": "Party City" }, "geometry": { "type": "Point", "coordinates": [ -118.568459324124873, 34.277460604880297 ] } },
{ "type": "Feature", "properties": { "venue_id": "14f2be66de2f154c4b384b0d", "entity_add": "50825 Valley Plaza Dr, St Clairsville, OH", "lat": 40.075351801959648, "lng": -80.871627648098496, "entity_nam": "Party City" }, "geometry": { "type": "Point", "coordinates": [ -80.871627648098496, 40.075351801959648 ] } },
{ "type": "Feature", "properties": { "venue_id": "161dfc37dde60ef061205266", "entity_add": "321  Worcester St, Natick, MA", "lat": 42.303025538646942, "lng": -71.338412292255782, "entity_nam": "Party City" }, "geometry": { "type": "Point", "coordinates": [ -71.338412292255782, 42.303025538646942 ] } },
{ "type": "Feature", "properties": { "venue_id": "15b71f7d054384bcc764b2eb", "entity_add": "2142 Miamisburg Centerville Rd, Dayton, OH", "lat": 39.632574021191175, "lng": -84.210430122271632, "entity_nam": "Party City" }, "geometry": { "type": "Point", "coordinates": [ -84.210430122271632, 39.632574021191175 ] } },
{ "type": "Feature", "properties": { "venue_id": "15eb87d46844be1fc7235fb9", "entity_add": "4101 US-77, Corpus Christi, TX", "lat": 27.858735443643241, "lng": -97.630813712426004, "entity_nam": "Party City" }, "geometry": { "type": "Point", "coordinates": [ -97.630813712426004, 27.858735443643241 ] } },
{ "type": "Feature", "properties": { "venue_id": "16822b075c6bcda3965f51c3", "entity_add": "99 Eglin Pkwy Ste 4, Fort Walton Beach, FL", "lat": 30.418908999720497, "lng": -86.605751649789838, "entity_nam": "Party City" }, "geometry": { "type": "Point", "coordinates": [ -86.605751649789838, 30.418908999720497 ] } },
{ "type": "Feature", "properties": { "venue_id": "1799e7e857de13c60bd948c5", "entity_add": "Chesapeake, VA", "lat": 36.821657735264971, "lng": -76.412064126751616, "entity_nam": "Party City" }, "geometry": { "type": "Point", "coordinates": [ -76.412064126751616, 36.821657735264971 ] } },
{ "type": "Feature", "properties": { "venue_id": "1777153cde98c3812f08aac1", "entity_add": "15947 Biscayne Blvd, North Miami Beach, FL", "lat": 25.922613116890616, "lng": -80.15397319091619, "entity_nam": "Party City" }, "geometry": { "type": "Point", "coordinates": [ -80.15397319091619, 25.922613116890616 ] } },
{ "type": "Feature", "properties": { "venue_id": "15c31bd494693d2c40334359", "entity_add": "501 W Belt Line Rd, Richardson, TX", "lat": 32.948156058329104, "lng": -96.737326906887787, "entity_nam": "Party City" }, "geometry": { "type": "Point", "coordinates": [ -96.737326906887787, 32.948156058329104 ] } },
{ "type": "Feature", "properties": { "venue_id": "15c2c0a32a8e415e9a5a4eec", "entity_add": "2910 Chapel Hill Rd, Douglasville, GA", "lat": 33.726735699045463, "lng": -84.733339035087823, "entity_nam": "Party City" }, "geometry": { "type": "Point", "coordinates": [ -84.733339035087823, 33.726735699045463 ] } },
{ "type": "Feature", "properties": { "venue_id": "1322ea6e772bb6359b59fcb0", "entity_add": "3220 E Colonial Dr, Orlando, FL", "lat": 28.551671452945687, "lng": -81.342587463691117, "entity_nam": "Party City" }, "geometry": { "type": "Point", "coordinates": [ -81.342587463691117, 28.551671452945687 ] } },
{ "type": "Feature", "properties": { "venue_id": "19654f7cc8a0f57fde73e7b5", "entity_add": "12799 Citrus Plaza Dr, Tampa, FL", "lat": 28.063889604713705, "lng": -82.574341442280499, "entity_nam": "Party City" }, "geometry": { "type": "Point", "coordinates": [ -82.574341442280499, 28.063889604713705 ] } },
{ "type": "Feature", "properties": { "venue_id": "182f7e9c3d3e79e926cfa083", "entity_add": "845 County Rd 64, Elmira, NY", "lat": 42.154875525515507, "lng": -76.882748594424527, "entity_nam": "Party City" }, "geometry": { "type": "Point", "coordinates": [ -76.882748594424527, 42.154875525515507 ] } },
{ "type": "Feature", "properties": { "venue_id": "150f61a444d145c6e67fa37e", "entity_add": "3060 Walter Payton Memorial Hwy, Oswego, IL", "lat": 41.695591347318583, "lng": -88.317646122, "entity_nam": "Party City" }, "geometry": { "type": "Point", "coordinates": [ -88.317646122, 41.695591347318583 ] } },
{ "type": "Feature", "properties": { "venue_id": "1971f2d53ebc241a285f054e", "entity_add": "5643 Centennial Center Blvd, Las Vegas, NV", "lat": 36.26357241952001, "lng": -115.25857606591514, "entity_nam": "Party City" }, "geometry": { "type": "Point", "coordinates": [ -115.258576065915136, 36.26357241952001 ] } },
{ "type": "Feature", "properties": { "venue_id": "1b62a546714213dbeee50435", "entity_add": "11006 Veirs Mill Rd, Wheaton Crest, MD", "lat": 39.035131294539767, "lng": -77.052517118510607, "entity_nam": "Party City" }, "geometry": { "type": "Point", "coordinates": [ -77.052517118510607, 39.035131294539767 ] } },
{ "type": "Feature", "properties": { "venue_id": "192677f26b2a68a6781fd761", "entity_add": "6600 Spring Stuebner Road, Spring, 77389, TX", "lat": 30.086058558598271, "lng": -95.521278880396991, "entity_nam": "Party City" }, "geometry": { "type": "Point", "coordinates": [ -95.521278880396991, 30.086058558598271 ] } },
{ "type": "Feature", "properties": { "venue_id": "1a860700ae51933ac7edfaef", "entity_add": "4743-A Ashford Dunwoody Road, Atlanta, GA", "lat": 33.933361234077609, "lng": -84.335640389659588, "entity_nam": "Party City" }, "geometry": { "type": "Point", "coordinates": [ -84.335640389659588, 33.933361234077609 ] } },
{ "type": "Feature", "properties": { "venue_id": "1be43675c4d3688123bf42c2", "entity_add": "6499  Carlisle Pike, Mechanicsburg, PA", "lat": 40.245381912870641, "lng": -77.023149297105988, "entity_nam": "Party City" }, "geometry": { "type": "Point", "coordinates": [ -77.023149297105988, 40.245381912870641 ] } },
{ "type": "Feature", "properties": { "venue_id": "1bceb787ed1f3b7ceb1843b5", "entity_add": "44600 Valley Central Way, Lancaster, CA", "lat": 34.692563076012753, "lng": -118.17096822967837, "entity_nam": "Party City" }, "geometry": { "type": "Point", "coordinates": [ -118.170968229678365, 34.692563076012753 ] } },
{ "type": "Feature", "properties": { "venue_id": "112603a77203eeb7abf255e7", "entity_add": "220 Maine Mall Rd, South Portland, ME", "lat": 43.638590834372245, "lng": -70.333618906301894, "entity_nam": "Party City" }, "geometry": { "type": "Point", "coordinates": [ -70.333618906301894, 43.638590834372245 ] } },
{ "type": "Feature", "properties": { "venue_id": "1cd8cd5f76dbaf6baf4937b9", "entity_add": "4414 Dallas Fort Tpke ste # 100, Dallas, TX", "lat": 32.762826439802907, "lng": -96.900127642414404, "entity_nam": "Party City" }, "geometry": { "type": "Point", "coordinates": [ -96.900127642414404, 32.762826439802907 ] } },
{ "type": "Feature", "properties": { "venue_id": "1e61e00f052f5639a6f9eb62", "entity_add": "843 E Commercial Blvd, Oakland Park, FL", "lat": 26.18944307557225, "lng": -80.136634901366534, "entity_nam": "Party City" }, "geometry": { "type": "Point", "coordinates": [ -80.136634901366534, 26.18944307557225 ] } },
{ "type": "Feature", "properties": { "venue_id": "1ac5364975942a33db82760c", "entity_add": "22191 Powerline Rd Ste 23C, Boca Raton, FL", "lat": 26.346911970932243, "lng": -80.154760230717002, "entity_nam": "Party City" }, "geometry": { "type": "Point", "coordinates": [ -80.154760230717002, 26.346911970932243 ] } },
{ "type": "Feature", "properties": { "venue_id": "1da909f5266d779ee702590a", "entity_add": "12339 Limonite Ave, Mira Loma, CA", "lat": 33.978416961612439, "lng": -117.55206780792318, "entity_nam": "Party City" }, "geometry": { "type": "Point", "coordinates": [ -117.55206780792318, 33.978416961612439 ] } },
{ "type": "Feature", "properties": { "venue_id": "1be47a44cd96c1c0dd5d5754", "entity_add": "8600 E 96th St, Fishers, IN", "lat": 39.927922440203815, "lng": -86.018037564494136, "entity_nam": "Party City" }, "geometry": { "type": "Point", "coordinates": [ -86.018037564494136, 39.927922440203815 ] } },
{ "type": "Feature", "properties": { "venue_id": "1d99963c08dbff6b870ed0dd", "entity_add": "10385 Reisterstown Rd, Owings Mills, MD", "lat": 39.419475492782723, "lng": -76.778004523405116, "entity_nam": "Party City" }, "geometry": { "type": "Point", "coordinates": [ -76.778004523405116, 39.419475492782723 ] } },
{ "type": "Feature", "properties": { "venue_id": "107dc6a4dccae1420f5ff799", "entity_add": "915 Hartford Turnpike, Waterford, CT", "lat": 41.383102785875032, "lng": -72.151401619942092, "entity_nam": "Party City" }, "geometry": { "type": "Point", "coordinates": [ -72.151401619942092, 41.383102785875032 ] } },
{ "type": "Feature", "properties": { "venue_id": "1d3b218db4969a9df8a60cc3", "entity_add": "1700 Fruitville Pike, Lancaster, PA", "lat": 40.067024496607623, "lng": -76.319364839971342, "entity_nam": "Party City" }, "geometry": { "type": "Point", "coordinates": [ -76.319364839971342, 40.067024496607623 ] } },
{ "type": "Feature", "properties": { "venue_id": "1ea008de55bb25b21069375e", "entity_add": "2785 Papermill Rd, Reading, PA", "lat": 40.361085833068742, "lng": -75.985748241084138, "entity_nam": "Party City" }, "geometry": { "type": "Point", "coordinates": [ -75.985748241084138, 40.361085833068742 ] } },
{ "type": "Feature", "properties": { "venue_id": "1de135752cefe765770f4d6f", "entity_add": "152 S Gary Ave, Bloomingdale, IL", "lat": 41.950380598802965, "lng": -88.122636237063816, "entity_nam": "Party City" }, "geometry": { "type": "Point", "coordinates": [ -88.122636237063816, 41.950380598802965 ] } },
{ "type": "Feature", "properties": { "venue_id": "213566fbbde5cee96e7e1b0b", "entity_add": "2396 Sunrise Hwy, Islip, NY", "lat": 40.741191647320498, "lng": -73.211385422364202, "entity_nam": "Party City" }, "geometry": { "type": "Point", "coordinates": [ -73.211385422364202, 40.741191647320498 ] } },
{ "type": "Feature", "properties": { "venue_id": "1f9c87bdcc9f4f5f49fb92e0", "entity_add": "2620 E Workman Ave, West Covina, CA", "lat": 34.07454030471834, "lng": -117.88966864872589, "entity_nam": "Party City" }, "geometry": { "type": "Point", "coordinates": [ -117.889668648725888, 34.07454030471834 ] } },
{ "type": "Feature", "properties": { "venue_id": "1f6f8f7a771395ea7df48cba", "entity_add": "1684 N Main St, Salinas, CA", "lat": 36.716545389334485, "lng": -121.65250280675123, "entity_nam": "Party City" }, "geometry": { "type": "Point", "coordinates": [ -121.65250280675123, 36.716545389334485 ] } },
{ "type": "Feature", "properties": { "venue_id": "21eaed3cd703eb6fc1514188", "entity_add": "14802 Baltimore Ave, Laurel, MD", "lat": 39.09517722335773, "lng": -76.856424069499667, "entity_nam": "Party City" }, "geometry": { "type": "Point", "coordinates": [ -76.856424069499667, 39.09517722335773 ] } },
{ "type": "Feature", "properties": { "venue_id": "187fdd490055d86f7de0a90d", "entity_add": "6272 S Dixie Hwy, South Miami, FL", "lat": 25.699749781615974, "lng": -80.294581224537424, "entity_nam": "Party City" }, "geometry": { "type": "Point", "coordinates": [ -80.294581224537424, 25.699749781615974 ] } },
{ "type": "Feature", "properties": { "venue_id": "1edb2926f8f2f1b8a7227e02", "entity_add": "2702 Martha Berry Hwy, Rome, GA", "lat": 34.300530610741269, "lng": -85.175532251681361, "entity_nam": "Party City" }, "geometry": { "type": "Point", "coordinates": [ -85.175532251681361, 34.300530610741269 ] } },
{ "type": "Feature", "properties": { "venue_id": "251b724102ce2b62b982add6", "entity_add": "1441 Imperial Hwy, La Habra, CA", "lat": 33.918876350275589, "lng": -117.96231396875051, "entity_nam": "Party City" }, "geometry": { "type": "Point", "coordinates": [ -117.962313968750507, 33.918876350275589 ] } },
{ "type": "Feature", "properties": { "venue_id": "23bfdafd72aee30609309cf0", "entity_add": "4771 US Highway 9, Howell, NJ", "lat": 40.136321558475458, "lng": -74.221567387447138, "entity_nam": "Party City" }, "geometry": { "type": "Point", "coordinates": [ -74.221567387447138, 40.136321558475458 ] } },
{ "type": "Feature", "properties": { "venue_id": "26bf626b25cd66967a40ffb9", "entity_add": "8095 Glades Rd, Boca Raton, FL", "lat": 26.369343653557689, "lng": -80.172066486946903, "entity_nam": "Party City" }, "geometry": { "type": "Point", "coordinates": [ -80.172066486946903, 26.369343653557689 ] } },
{ "type": "Feature", "properties": { "venue_id": "220fca582ae1a33745840269", "entity_add": "3417 N Western Ave, Chicago, IL", "lat": 41.943739525969079, "lng": -87.687800939238414, "entity_nam": "Party City" }, "geometry": { "type": "Point", "coordinates": [ -87.687800939238414, 41.943739525969079 ] } },
{ "type": "Feature", "properties": { "venue_id": "2220d06966f0d91498923592", "entity_add": "2401 McHenry Ave, Modesto, CA", "lat": 37.676987352638065, "lng": -120.99547245902204, "entity_nam": "Party City" }, "geometry": { "type": "Point", "coordinates": [ -120.995472459022039, 37.676987352638065 ] } },
{ "type": "Feature", "properties": { "venue_id": "10f0a0a7801615a9eef9b388", "entity_add": "1630 Galleria Blvd Ste 100, Brentwood, TN", "lat": 35.969144344533689, "lng": -86.809268257554578, "entity_nam": "Party City" }, "geometry": { "type": "Point", "coordinates": [ -86.809268257554578, 35.969144344533689 ] } },
{ "type": "Feature", "properties": { "venue_id": "2618c91ae215dcf731ff17e6", "entity_add": "17 Main St, East Hartford, CT", "lat": 41.728514074803698, "lng": -72.619520645898945, "entity_nam": "Party City" }, "geometry": { "type": "Point", "coordinates": [ -72.619520645898945, 41.728514074803698 ] } },
{ "type": "Feature", "properties": { "venue_id": "2721816e46ff8c78ab8d5ba4", "entity_add": "8063 Jericho Tpke, Woodbury, NY", "lat": 40.815811696093306, "lng": -73.474317391370249, "entity_nam": "Party City" }, "geometry": { "type": "Point", "coordinates": [ -73.474317391370249, 40.815811696093306 ] } },
{ "type": "Feature", "properties": { "venue_id": "25fb760aa73b572c474c2ac8", "entity_add": "100 Rockland Ctr, Nanuet, NY", "lat": 41.091293269756598, "lng": -74.003888438760896, "entity_nam": "Party City" }, "geometry": { "type": "Point", "coordinates": [ -74.003888438760896, 41.091293269756598 ] } },
{ "type": "Feature", "properties": { "venue_id": "29239ea10c52d6abb303d4e7", "entity_add": "5844 Red Bug Lake Rd, Winter Springs, FL", "lat": 28.648626156513608, "lng": -81.266322548525764, "entity_nam": "Party City" }, "geometry": { "type": "Point", "coordinates": [ -81.266322548525764, 28.648626156513608 ] } },
{ "type": "Feature", "properties": { "venue_id": "2803d45b7f54e64c31585126", "entity_add": "12410 Amargosa Rd, Victorville, CA", "lat": 34.476629958908632, "lng": -117.34405976130614, "entity_nam": "Party City" }, "geometry": { "type": "Point", "coordinates": [ -117.344059761306141, 34.476629958908632 ] } },
{ "type": "Feature", "properties": { "venue_id": "27adb37246ee2efd289af2ef", "entity_add": "1306 West Davis Street, Conroe, 77304, TX", "lat": 30.317842567094569, "lng": -95.474498953470857, "entity_nam": "Party City" }, "geometry": { "type": "Point", "coordinates": [ -95.474498953470857, 30.317842567094569 ] } },
{ "type": "Feature", "properties": { "venue_id": "1a2ba36d005c44117a5a54fc", "entity_add": "1190 Newport Ave, Attleboro, MA", "lat": 41.898976839149313, "lng": -71.350948144198, "entity_nam": "Party City" }, "geometry": { "type": "Point", "coordinates": [ -71.350948144198, 41.898976839149313 ] } },
{ "type": "Feature", "properties": { "venue_id": "2947d0a036b832a5b34a1ba6", "entity_add": "6935 Southland Dr, Middleburg Heights, OH", "lat": 41.377836973335647, "lng": -81.790579498998383, "entity_nam": "Party City" }, "geometry": { "type": "Point", "coordinates": [ -81.790579498998383, 41.377836973335647 ] } },
{ "type": "Feature", "properties": { "venue_id": "28a4bc5e66bd8968416048ce", "entity_add": "4846 Baldwin Rd, Orion Twp, MI", "lat": 42.7099006925597, "lng": -83.31104508954256, "entity_nam": "Party City" }, "geometry": { "type": "Point", "coordinates": [ -83.31104508954256, 42.7099006925597 ] } },
{ "type": "Feature", "properties": { "venue_id": "2179c3594d8c2701c9ea5174", "entity_add": "40486 Winchester Rd, Temecula, CA", "lat": 33.529064587336151, "lng": -117.15351985876684, "entity_nam": "Party City" }, "geometry": { "type": "Point", "coordinates": [ -117.153519858766842, 33.529064587336151 ] } },
{ "type": "Feature", "properties": { "venue_id": "287a6ec94ca5f500e8024a81", "entity_add": "4585 East Sam Houston Pkwy S, Pasadena, TX", "lat": 29.641058860206432, "lng": -95.156009256424881, "entity_nam": "Party City" }, "geometry": { "type": "Point", "coordinates": [ -95.156009256424881, 29.641058860206432 ] } },
{ "type": "Feature", "properties": { "venue_id": "1662db8f91a91f6222922d7a", "entity_add": "5600 Urbana Pike, Frederick, MD", "lat": 39.386375423690552, "lng": -77.404748078223605, "entity_nam": "Party City" }, "geometry": { "type": "Point", "coordinates": [ -77.404748078223605, 39.386375423690552 ] } },
{ "type": "Feature", "properties": { "venue_id": "27bd831bcbf00f75fc193b1a", "entity_add": "1051 S Willow St, Manchester, NH", "lat": 42.960971502485151, "lng": -71.440766719460939, "entity_nam": "Party City" }, "geometry": { "type": "Point", "coordinates": [ -71.440766719460939, 42.960971502485151 ] } },
{ "type": "Feature", "properties": { "venue_id": "298b609c38faec9cb1e4c156", "entity_add": "25361 Crenshaw Blvd, Torrance, CA", "lat": 33.79425936744704, "lng": -118.33184269574916, "entity_nam": "Party City" }, "geometry": { "type": "Point", "coordinates": [ -118.33184269574916, 33.79425936744704 ] } },
{ "type": "Feature", "properties": { "venue_id": "2857ba79835b6723972cca0f", "entity_add": "8026 W Bell Rd, Glendale, AZ", "lat": 33.639743431648697, "lng": -112.23067124522902, "entity_nam": "Party City" }, "geometry": { "type": "Point", "coordinates": [ -112.230671245229018, 33.639743431648697 ] } },
{ "type": "Feature", "properties": { "venue_id": "29a40f18f1798814e3a869d0", "entity_add": "940 Ne Sam Walton Ln, Lee's Summit, MO", "lat": 38.929288511100864, "lng": -94.361719296821349, "entity_nam": "Party City" }, "geometry": { "type": "Point", "coordinates": [ -94.361719296821349, 38.929288511100864 ] } },
{ "type": "Feature", "properties": { "venue_id": "29643117ba3276c2b457829d", "entity_add": "5127 NW Loop 410, San Antonio, TX", "lat": 29.48719132763765, "lng": -98.589646725224497, "entity_nam": "Party City" }, "geometry": { "type": "Point", "coordinates": [ -98.589646725224497, 29.48719132763765 ] } },
{ "type": "Feature", "properties": { "venue_id": "2792664735b9df605e130151", "entity_add": "1892 Mt Zion Rd, Morrow, GA", "lat": 33.568393634211262, "lng": -84.328938016434662, "entity_nam": "Party City" }, "geometry": { "type": "Point", "coordinates": [ -84.328938016434662, 33.568393634211262 ] } },
{ "type": "Feature", "properties": { "venue_id": "2c66ac6f105edde8f25d6b70", "entity_add": "6932 Green Bay Rd, Kenosha, WI", "lat": 42.570143300434943, "lng": -87.889772902002406, "entity_nam": "Party City" }, "geometry": { "type": "Point", "coordinates": [ -87.889772902002406, 42.570143300434943 ] } },
{ "type": "Feature", "properties": { "venue_id": "2ab60f0813ff0046a18f82f1", "entity_add": "70 Worcester-providence Tpke, Millbury, MA", "lat": 42.195611080969364, "lng": -71.777044838035792, "entity_nam": "Party City" }, "geometry": { "type": "Point", "coordinates": [ -71.777044838035792, 42.195611080969364 ] } },
{ "type": "Feature", "properties": { "venue_id": "2be3b215023f68414e6e4dbb", "entity_add": "6508 Baltimore National Pike, Catonsville, MD", "lat": 39.28675162219151, "lng": -76.761593624246387, "entity_nam": "Party City" }, "geometry": { "type": "Point", "coordinates": [ -76.761593624246387, 39.28675162219151 ] } },
{ "type": "Feature", "properties": { "venue_id": "2bf712288b214a44f0a7180f", "entity_add": "10628 Culebra Rd, San Antonio, TX", "lat": 29.490799250942544, "lng": -98.701672853476992, "entity_nam": "Party City" }, "geometry": { "type": "Point", "coordinates": [ -98.701672853476992, 29.490799250942544 ] } },
{ "type": "Feature", "properties": { "venue_id": "15e4e8785341968bcc6bab5f", "entity_add": "1615 Montgomery Hwy, Birmingham, AL", "lat": 33.397494899358172, "lng": -86.804791592949897, "entity_nam": "Party City" }, "geometry": { "type": "Point", "coordinates": [ -86.804791592949897, 33.397494899358172 ] } },
{ "type": "Feature", "properties": { "venue_id": "2378d861a3052cc3d81a7cef", "entity_add": "30750 Orchard Lake Rd, Farmington Hills, MI", "lat": 42.52344411001598, "lng": -83.358407935290614, "entity_nam": "Party City" }, "geometry": { "type": "Point", "coordinates": [ -83.358407935290614, 42.52344411001598 ] } },
{ "type": "Feature", "properties": { "venue_id": "2cb99ccb7ae86b938369a4f7", "entity_add": "8063 Montgomery Rd, Cincinnati, OH", "lat": 39.203169751598473, "lng": -84.371612228041243, "entity_nam": "Party City" }, "geometry": { "type": "Point", "coordinates": [ -84.371612228041243, 39.203169751598473 ] } },
{ "type": "Feature", "properties": { "venue_id": "2ba1a44ed7fdcad772a7ae93", "entity_add": "4450 Eastgate Blvd Ste 280, Cincinnati, OH", "lat": 39.093677209173165, "lng": -84.275597173114036, "entity_nam": "Party City" }, "geometry": { "type": "Point", "coordinates": [ -84.275597173114036, 39.093677209173165 ] } },
{ "type": "Feature", "properties": { "venue_id": "2c9db0f8801f268ec4eff264", "entity_add": "15 Stockwell Dr, Avon, MA", "lat": 42.128133086443256, "lng": -71.067979749590336, "entity_nam": "Party City" }, "geometry": { "type": "Point", "coordinates": [ -71.067979749590336, 42.128133086443256 ] } },
{ "type": "Feature", "properties": { "venue_id": "2c9c2cd4b3f546d311d2b34a", "entity_add": "2210-B Hamilton Pl Blvd Store #290, Chattanooga, TN", "lat": 35.038996458027206, "lng": -85.153909714014006, "entity_nam": "Party City" }, "geometry": { "type": "Point", "coordinates": [ -85.153909714014006, 35.038996458027206 ] } },
{ "type": "Feature", "properties": { "venue_id": "2c2ee835b214830e83c51c68", "entity_add": "6413 Sw 3rd St, Oklahoma City, OK", "lat": 35.463069528080069, "lng": -97.627570775619745, "entity_nam": "Party City" }, "geometry": { "type": "Point", "coordinates": [ -97.627570775619745, 35.463069528080069 ] } },
{ "type": "Feature", "properties": { "venue_id": "2e725639672e8bb7a48755ea", "entity_add": "737 Montauk Hwy, West Babylon, NY", "lat": 40.686953969262795, "lng": -73.348045155161614, "entity_nam": "Party City" }, "geometry": { "type": "Point", "coordinates": [ -73.348045155161614, 40.686953969262795 ] } },
{ "type": "Feature", "properties": { "venue_id": "2f38094a1a40e92f93076809", "entity_add": "1580 VFW Parkway, West Roxbury, MA", "lat": 42.26636667963573, "lng": -71.167649699116481, "entity_nam": "Party City" }, "geometry": { "type": "Point", "coordinates": [ -71.167649699116481, 42.26636667963573 ] } },
{ "type": "Feature", "properties": { "venue_id": "2e839c2aefc50c36915825d1", "entity_add": "2963 Cobb Pkwy SE, Atlanta, GA", "lat": 33.882582432318152, "lng": -84.460167204850151, "entity_nam": "Party City" }, "geometry": { "type": "Point", "coordinates": [ -84.460167204850151, 33.882582432318152 ] } },
{ "type": "Feature", "properties": { "venue_id": "2f628f6b3f9ec36016a4c1f2", "entity_add": "35745 Warren Rd, Westland, MI", "lat": 42.336585134877829, "lng": -83.394801665512944, "entity_nam": "Party City" }, "geometry": { "type": "Point", "coordinates": [ -83.394801665512944, 42.336585134877829 ] } },
{ "type": "Feature", "properties": { "venue_id": "297ed748a9983070ef86badc", "entity_add": "4962 Monroe St, Toledo, OH", "lat": 41.698151013566658, "lng": -83.639969932669544, "entity_nam": "Party City" }, "geometry": { "type": "Point", "coordinates": [ -83.639969932669544, 41.698151013566658 ] } },
{ "type": "Feature", "properties": { "venue_id": "2ec159c2d9d9458f42a75b10", "entity_add": "8664 SE Sunnyside Rd, Clackamas, OR", "lat": 45.430959693753181, "lng": -122.57327713091374, "entity_nam": "Party City" }, "geometry": { "type": "Point", "coordinates": [ -122.573277130913738, 45.430959693753181 ] } },
{ "type": "Feature", "properties": { "venue_id": "295e0e00a2ebce54c5e1d33a", "entity_add": "611 Cross Keys Rd Ste 331, Sicklerville, NJ", "lat": 39.737299991977402, "lng": -75.009002164338767, "entity_nam": "Party City" }, "geometry": { "type": "Point", "coordinates": [ -75.009002164338767, 39.737299991977402 ] } },
{ "type": "Feature", "properties": { "venue_id": "2ee5a3c3e36b734fa783d1b5", "entity_add": "8905 SW Cascade Ave Suite, Beaverton, 97008, OR", "lat": 45.45569692028154, "lng": -122.78658067988115, "entity_nam": "Party City" }, "geometry": { "type": "Point", "coordinates": [ -122.786580679881155, 45.45569692028154 ] } },
{ "type": "Feature", "properties": { "venue_id": "2cfebb5bd088818931cf1991", "entity_add": "3111 Kennedy Blvd, North Bergen, NJ", "lat": 40.774712884285158, "lng": -74.035456960212827, "entity_nam": "Party City" }, "geometry": { "type": "Point", "coordinates": [ -74.035456960212827, 40.774712884285158 ] } },
{ "type": "Feature", "properties": { "venue_id": "2fba2750f9ef2b5b19f86f4a", "entity_add": "6866 W Kellogg Dr, Wichita, KS", "lat": 37.673418724444915, "lng": -97.422609614498995, "entity_nam": "Party City" }, "geometry": { "type": "Point", "coordinates": [ -97.422609614498995, 37.673418724444915 ] } },
{ "type": "Feature", "properties": { "venue_id": "27e95791d66774124e834515", "entity_add": "7690 North Academy Blvd, Colorado Springs, 80920, CO", "lat": 38.942482957893645, "lng": -104.80218397324609, "entity_nam": "Party City" }, "geometry": { "type": "Point", "coordinates": [ -104.802183973246088, 38.942482957893645 ] } },
{ "type": "Feature", "properties": { "venue_id": "30843110a28a62fdd78f550e", "entity_add": "15212-B Crossroads Pkwy, Gulfport, MS", "lat": 30.439816191502114, "lng": -89.092586071488483, "entity_nam": "Party City" }, "geometry": { "type": "Point", "coordinates": [ -89.092586071488483, 30.439816191502114 ] } },
{ "type": "Feature", "properties": { "venue_id": "2e5e675986629f9831d0f08f", "entity_add": "1117 Woodruff Rd, Greenville, SC", "lat": 34.83173434020776, "lng": -82.302702936344687, "entity_nam": "Party City" }, "geometry": { "type": "Point", "coordinates": [ -82.302702936344687, 34.83173434020776 ] } },
{ "type": "Feature", "properties": { "venue_id": "2f8405399b9b63da0f49d9d0", "entity_add": "2171 WP Ball Blvd, Sanford, FL", "lat": 28.799142178310248, "lng": -81.332216715213278, "entity_nam": "Party City" }, "geometry": { "type": "Point", "coordinates": [ -81.332216715213278, 28.799142178310248 ] } },
{ "type": "Feature", "properties": { "venue_id": "3068f636d282e96b6ba136be", "entity_add": "8081 Brier Creek Parkway, Raleigh, NC", "lat": 35.909453864646849, "lng": -78.781332960148006, "entity_nam": "Party City" }, "geometry": { "type": "Point", "coordinates": [ -78.781332960148006, 35.909453864646849 ] } },
{ "type": "Feature", "properties": { "venue_id": "30ee8f3cf9173aed2fb7f3a2", "entity_add": "8 Mystic View Rd, Everett, MA", "lat": 42.398651903492649, "lng": -71.068847648586612, "entity_nam": "Party City" }, "geometry": { "type": "Point", "coordinates": [ -71.068847648586612, 42.398651903492649 ] } },
{ "type": "Feature", "properties": { "venue_id": "2fbe3a10049eb55737871d16", "entity_add": "651 Clairton Blvd, Pleasant Hills, PA", "lat": 40.330436729876745, "lng": -79.94403335775651, "entity_nam": "Party City" }, "geometry": { "type": "Point", "coordinates": [ -79.94403335775651, 40.330436729876745 ] } },
{ "type": "Feature", "properties": { "venue_id": "2f8b6e112ed057f49e634280", "entity_add": "320 Baychester Ave, Bronx, NY", "lat": 40.866799646168836, "lng": -73.828758053699985, "entity_nam": "Party City" }, "geometry": { "type": "Point", "coordinates": [ -73.828758053699985, 40.866799646168836 ] } },
{ "type": "Feature", "properties": { "venue_id": "2a8d32d43b067e15321af400", "entity_add": "713 Winfield Dunn Pkwy, Sevierville, TN", "lat": 35.879480487446784, "lng": -83.570332960670925, "entity_nam": "Party City" }, "geometry": { "type": "Point", "coordinates": [ -83.570332960670925, 35.879480487446784 ] } },
{ "type": "Feature", "properties": { "venue_id": "2d9b9fdf92f9f501eb0987af", "entity_add": "2243 Cumming Highway, Canton, GA", "lat": 34.239040446428305, "lng": -84.453555393216831, "entity_nam": "Party City" }, "geometry": { "type": "Point", "coordinates": [ -84.453555393216831, 34.239040446428305 ] } },
{ "type": "Feature", "properties": { "venue_id": "324cf17c0d740f5a52a9c025", "entity_add": "1040 Fairplain Dr, Benton Harbor, MI", "lat": 42.081480539641099, "lng": -86.432366738624552, "entity_nam": "Party City" }, "geometry": { "type": "Point", "coordinates": [ -86.432366738624552, 42.081480539641099 ] } },
{ "type": "Feature", "properties": { "venue_id": "329101ca1bbc73702d2b24a2", "entity_add": "3622 Bethany Rd, Indianapolis, IN", "lat": 39.914650070322267, "lng": -86.223436126035793, "entity_nam": "Party City" }, "geometry": { "type": "Point", "coordinates": [ -86.223436126035793, 39.914650070322267 ] } },
{ "type": "Feature", "properties": { "venue_id": "25fee735ab72cda6c3c62c43", "entity_add": "1791 Oconne Connector, Athens, GA", "lat": 33.916451688913298, "lng": -83.457931356912525, "entity_nam": "Party City" }, "geometry": { "type": "Point", "coordinates": [ -83.457931356912525, 33.916451688913298 ] } },
{ "type": "Feature", "properties": { "venue_id": "333d3d3fe03f1476363023e7", "entity_add": "307 Skokie Blvd, Northbrook, IL", "lat": 42.14692910316505, "lng": -87.796001731437002, "entity_nam": "Party City" }, "geometry": { "type": "Point", "coordinates": [ -87.796001731437002, 42.14692910316505 ] } },
{ "type": "Feature", "properties": { "venue_id": "34446a518b61a7aab634fb3a", "entity_add": "11000 Jefferson Blvd, Culver City, CA", "lat": 33.997607422210876, "lng": -118.3945036251319, "entity_nam": "Party City" }, "geometry": { "type": "Point", "coordinates": [ -118.394503625131904, 33.997607422210876 ] } },
{ "type": "Feature", "properties": { "venue_id": "3284985955eff49289377130", "entity_add": "1608 Montclair Rd, Birmingham, AL", "lat": 33.528571941695446, "lng": -86.721706645488538, "entity_nam": "Party City" }, "geometry": { "type": "Point", "coordinates": [ -86.721706645488538, 33.528571941695446 ] } },
{ "type": "Feature", "properties": { "venue_id": "31609eeeb9ad684717f96397", "entity_add": "3087 Berlin Turnpike, Newington, CT", "lat": 41.665722427670111, "lng": -72.722625726135078, "entity_nam": "Party City" }, "geometry": { "type": "Point", "coordinates": [ -72.722625726135078, 41.665722427670111 ] } },
{ "type": "Feature", "properties": { "venue_id": "353b4190af7f8a68a4e075af", "entity_add": "14390 Clay Terrace Blvd, Carmel, IN", "lat": 39.995454999871761, "lng": -86.12873684599829, "entity_nam": "Party City" }, "geometry": { "type": "Point", "coordinates": [ -86.12873684599829, 39.995454999871761 ] } },
{ "type": "Feature", "properties": { "venue_id": "362eee58de4295e8059e7c97", "entity_add": "162 E Main St, Mt Kisco, NY", "lat": 41.204719598506692, "lng": -73.727771808115961, "entity_nam": "Party City" }, "geometry": { "type": "Point", "coordinates": [ -73.727771808115961, 41.204719598506692 ] } },
{ "type": "Feature", "properties": { "venue_id": "34ce16da300eea0cdaaa56ed", "entity_add": "1611 Hilltop Dr, Redding, CA", "lat": 40.583654764527935, "lng": -122.35672433567882, "entity_nam": "Party City" }, "geometry": { "type": "Point", "coordinates": [ -122.35672433567882, 40.583654764527935 ] } },
{ "type": "Feature", "properties": { "venue_id": "2be13bbbcb3826a2f8b57f38", "entity_add": "510A E Market St, Leesburg, VA", "lat": 39.11107474637339, "lng": -77.552150115537572, "entity_nam": "Party City" }, "geometry": { "type": "Point", "coordinates": [ -77.552150115537572, 39.11107474637339 ] } },
{ "type": "Feature", "properties": { "venue_id": "2b07c46c4ab58565bb48604e", "entity_add": "6503 Mills Civic Pkwy, West Des Moines, IA", "lat": 41.563981346598354, "lng": -93.796696784805576, "entity_nam": "Party City" }, "geometry": { "type": "Point", "coordinates": [ -93.796696784805576, 41.563981346598354 ] } },
{ "type": "Feature", "properties": { "venue_id": "34a08986eefcc37974535d13", "entity_add": "2315 Colorado Blvd, Denton, TX", "lat": 33.191358679119944, "lng": -97.103293869775413, "entity_nam": "Party City" }, "geometry": { "type": "Point", "coordinates": [ -97.103293869775413, 33.191358679119944 ] } },
{ "type": "Feature", "properties": { "venue_id": "35a87f7cf6d486da82aade3a", "entity_add": "9600 S I-35 Frontage Rd E, Austin, TX", "lat": 30.161831059643205, "lng": -97.794738301712869, "entity_nam": "Party City" }, "geometry": { "type": "Point", "coordinates": [ -97.794738301712869, 30.161831059643205 ] } },
{ "type": "Feature", "properties": { "venue_id": "34f83add16a419a8ac8fea65", "entity_add": "180 Marketplace Blvd, Trenton, NJ", "lat": 40.192046004108406, "lng": -74.64052746136889, "entity_nam": "Party City" }, "geometry": { "type": "Point", "coordinates": [ -74.64052746136889, 40.192046004108406 ] } },
{ "type": "Feature", "properties": { "venue_id": "3264004445816b2f4273f078", "entity_add": "1500B. Lowes Blvd., Killeen, TX", "lat": 31.088932584619133, "lng": -97.727015402440571, "entity_nam": "Party City" }, "geometry": { "type": "Point", "coordinates": [ -97.727015402440571, 31.088932584619133 ] } },
{ "type": "Feature", "properties": { "venue_id": "32978c520018409390a3d7de", "entity_add": "5557 Dressler Rd NW, North Canton, 44720, OH", "lat": 40.862252763827058, "lng": -81.433855711642025, "entity_nam": "Party City" }, "geometry": { "type": "Point", "coordinates": [ -81.433855711642025, 40.862252763827058 ] } },
{ "type": "Feature", "properties": { "venue_id": "352c3852c062016a67a85778", "entity_add": "3329 S Veterans Pkwy, Springfield, IL", "lat": 39.75400928115215, "lng": -89.709248491369806, "entity_nam": "Party City" }, "geometry": { "type": "Point", "coordinates": [ -89.709248491369806, 39.75400928115215 ] } },
{ "type": "Feature", "properties": { "venue_id": "37011ff6ff52b1d7659c6b08", "entity_add": "1250 N Germantown Pkwy, Cordova, TN", "lat": 35.158946455178629, "lng": -89.793682865352679, "entity_nam": "Party City" }, "geometry": { "type": "Point", "coordinates": [ -89.793682865352679, 35.158946455178629 ] } },
{ "type": "Feature", "properties": { "venue_id": "3a2ba462751d113a8be4523b", "entity_add": "27339 Covington Way SE, Covington, WA", "lat": 47.356218520963473, "lng": -122.12610777263443, "entity_nam": "Party City" }, "geometry": { "type": "Point", "coordinates": [ -122.126107772634427, 47.356218520963473 ] } },
{ "type": "Feature", "properties": { "venue_id": "3b8d011831c742f4a8cd5fc4", "entity_add": "624 Palomar St, Chula Vista, CA", "lat": 32.602471999835032, "lng": -117.08010935773156, "entity_nam": "Party City" }, "geometry": { "type": "Point", "coordinates": [ -117.080109357731558, 32.602471999835032 ] } },
{ "type": "Feature", "properties": { "venue_id": "39d662a27b569967b6128df4", "entity_add": "7612 Denton Hwy, Watauga, TX", "lat": 32.883707716488146, "lng": -97.258591672835522, "entity_nam": "Party City" }, "geometry": { "type": "Point", "coordinates": [ -97.258591672835522, 32.883707716488146 ] } },
{ "type": "Feature", "properties": { "venue_id": "372f81733280241d424bdce8", "entity_add": "2661 Plainfield Rd, Joliet, IL", "lat": 41.575946409572019, "lng": -88.152635175509786, "entity_nam": "Party City" }, "geometry": { "type": "Point", "coordinates": [ -88.152635175509786, 41.575946409572019 ] } },
{ "type": "Feature", "properties": { "venue_id": "38da15ffdbb7c2bf34a47a18", "entity_add": "5025 S Cleveland Ave, Fort Myers, FL", "lat": 26.584426414697568, "lng": -81.869916528843518, "entity_nam": "Party City" }, "geometry": { "type": "Point", "coordinates": [ -81.869916528843518, 26.584426414697568 ] } },
{ "type": "Feature", "properties": { "venue_id": "3ab8592367ae1b6180ac9077", "entity_add": "1371 S Reed Rd, Kokomo, 46902, IN", "lat": 40.47206176764373, "lng": -86.109991180316513, "entity_nam": "Party City" }, "geometry": { "type": "Point", "coordinates": [ -86.109991180316513, 40.47206176764373 ] } },
{ "type": "Feature", "properties": { "venue_id": "36bc546648d7c618738a32f3", "entity_add": "1960 Tyrone Blvd N, St. Petersburg, FL", "lat": 27.787856465094006, "lng": -82.725306924718154, "entity_nam": "Party City" }, "geometry": { "type": "Point", "coordinates": [ -82.725306924718154, 27.787856465094006 ] } },
{ "type": "Feature", "properties": { "venue_id": "31296bdd12e486387d13501f", "entity_add": "7735 W Long Dr, Littleton, CO", "lat": 39.611037418446294, "lng": -105.08076799538281, "entity_nam": "Party City" }, "geometry": { "type": "Point", "coordinates": [ -105.080767995382814, 39.611037418446294 ] } },
{ "type": "Feature", "properties": { "venue_id": "3a998ad07056ab0a1648b77f", "entity_add": "9551 Ridgetop, Silverdale, WA", "lat": 47.655171494756146, "lng": -122.68038438955587, "entity_nam": "Party City" }, "geometry": { "type": "Point", "coordinates": [ -122.680384389555869, 47.655171494756146 ] } },
{ "type": "Feature", "properties": { "venue_id": "37bb7aa283230e1faee0802b", "entity_add": "10408 156th St E, Puyallup, WA", "lat": 47.113120145429377, "lng": -122.29061276112893, "entity_nam": "Party City" }, "geometry": { "type": "Point", "coordinates": [ -122.290612761128926, 47.113120145429377 ] } },
{ "type": "Feature", "properties": { "venue_id": "3c924ac0f5f69ffc5041272b", "entity_add": "1239 Deer Pk Ave  #231, North Babylon, NY", "lat": 40.737910476600007, "lng": -73.318749026661266, "entity_nam": "Party City" }, "geometry": { "type": "Point", "coordinates": [ -73.318749026661266, 40.737910476600007 ] } },
{ "type": "Feature", "properties": { "venue_id": "3ade8a46112a4292e4eea2bf", "entity_add": "415 Cochran St, Simi Valley, CA", "lat": 34.281848479902706, "lng": -118.78975926714027, "entity_nam": "Party City" }, "geometry": { "type": "Point", "coordinates": [ -118.789759267140269, 34.281848479902706 ] } },
{ "type": "Feature", "properties": { "venue_id": "37cd22baca535253787b4f20", "entity_add": "5522 Leesburg Pike, Falls Church, VA", "lat": 38.848533730934058, "lng": -77.123341636343739, "entity_nam": "Party City" }, "geometry": { "type": "Point", "coordinates": [ -77.123341636343739, 38.848533730934058 ] } },
{ "type": "Feature", "properties": { "venue_id": "3bdd13dbfd57b713557be21a", "entity_add": "1340 N. Town East Boulevard, Mesquite, 75150, TX", "lat": 32.807073374978771, "lng": -96.616880384210504, "entity_nam": "Party City" }, "geometry": { "type": "Point", "coordinates": [ -96.616880384210504, 32.807073374978771 ] } },
{ "type": "Feature", "properties": { "venue_id": "3bb7ede561f5fe36280869be", "entity_add": "305 E Trenton Rd, Edinburg, TX", "lat": 26.26384016553618, "lng": -98.170297643109549, "entity_nam": "Party City" }, "geometry": { "type": "Point", "coordinates": [ -98.170297643109549, 26.26384016553618 ] } },
{ "type": "Feature", "properties": { "venue_id": "3d28b47ea18243cb15d513f6", "entity_add": "4715 E Ray Rd, Phoenix, AZ", "lat": 33.317585630130836, "lng": -111.98248627697043, "entity_nam": "Party City" }, "geometry": { "type": "Point", "coordinates": [ -111.982486276970434, 33.317585630130836 ] } },
{ "type": "Feature", "properties": { "venue_id": "3d93d258059485e09e78ace9", "entity_add": "7800 Rivers Ave, North Charleston, SC", "lat": 32.946049261829486, "lng": -80.038510894721213, "entity_nam": "Party City" }, "geometry": { "type": "Point", "coordinates": [ -80.038510894721213, 32.946049261829486 ] } },
{ "type": "Feature", "properties": { "venue_id": "38bf3f103e19b303dadec2f7", "entity_add": "280 Shenstone Ln, Garner, NC", "lat": 35.690077130052238, "lng": -78.581215916805945, "entity_nam": "Party City" }, "geometry": { "type": "Point", "coordinates": [ -78.581215916805945, 35.690077130052238 ] } },
{ "type": "Feature", "properties": { "venue_id": "37aa4a3c8aa90004f9c521b9", "entity_add": "3707 Easton Market, Columbus, OH", "lat": 40.049962442238275, "lng": -82.923800547436386, "entity_nam": "Party City" }, "geometry": { "type": "Point", "coordinates": [ -82.923800547436386, 40.049962442238275 ] } },
{ "type": "Feature", "properties": { "venue_id": "3fa7b16ee66f737ed828880c", "entity_add": "288 Chelmsford St, Chelmsford, MA", "lat": 42.613703169991318, "lng": -71.332759576889686, "entity_nam": "Party City" }, "geometry": { "type": "Point", "coordinates": [ -71.332759576889686, 42.613703169991318 ] } },
{ "type": "Feature", "properties": { "venue_id": "3ee8502483a6cd04a0248586", "entity_add": "116 Danada Square W, Wheaton, IL", "lat": 41.830243253262779, "lng": -88.108298335869051, "entity_nam": "Party City" }, "geometry": { "type": "Point", "coordinates": [ -88.108298335869051, 41.830243253262779 ] } },
{ "type": "Feature", "properties": { "venue_id": "3ffe7befcca66a766e6d5f48", "entity_add": "215 Dorset St, South Burlington, VT", "lat": 44.462323205462944, "lng": -73.182994192761598, "entity_nam": "Party City" }, "geometry": { "type": "Point", "coordinates": [ -73.182994192761598, 44.462323205462944 ] } },
{ "type": "Feature", "properties": { "venue_id": "3defad287b10216da141179e", "entity_add": "319 Benner Pike, State College, PA", "lat": 40.830809146628553, "lng": -77.808488223750302, "entity_nam": "Party City" }, "geometry": { "type": "Point", "coordinates": [ -77.808488223750302, 40.830809146628553 ] } },
{ "type": "Feature", "properties": { "venue_id": "41ef18713c697ce1636221ae", "entity_add": "7882 Van Nuys Blvd, Van Nuys, CA", "lat": 34.215841185480969, "lng": -118.44630039172388, "entity_nam": "Party City" }, "geometry": { "type": "Point", "coordinates": [ -118.446300391723881, 34.215841185480969 ] } },
{ "type": "Feature", "properties": { "venue_id": "4099a4a1d96c50b5b583e967", "entity_add": "28591 Tomball Pkwy, Tomball, TX", "lat": 30.0881135878276, "lng": -95.634843856407002, "entity_nam": "Party City" }, "geometry": { "type": "Point", "coordinates": [ -95.634843856407002, 30.0881135878276 ] } },
{ "type": "Feature", "properties": { "venue_id": "3f961c5c9437458596c5bd07", "entity_add": "4515 Canal Ave SW, Grandville, MI", "lat": 42.882842936617344, "lng": -85.77437363843022, "entity_nam": "Party City" }, "geometry": { "type": "Point", "coordinates": [ -85.77437363843022, 42.882842936617344 ] } },
{ "type": "Feature", "properties": { "venue_id": "41dfb3a63e5fd53a26a0bceb", "entity_add": "5808 Antioch Rd, Merriam, KS", "lat": 39.024282675941457, "lng": -94.689228890612071, "entity_nam": "Party City" }, "geometry": { "type": "Point", "coordinates": [ -94.689228890612071, 39.024282675941457 ] } },
{ "type": "Feature", "properties": { "venue_id": "40df93265f830188e4cd0ca0", "entity_add": "3373 Steelyard Dr, Cleveland, OH", "lat": 41.461482045674416, "lng": -81.688203024997165, "entity_nam": "Party City" }, "geometry": { "type": "Point", "coordinates": [ -81.688203024997165, 41.461482045674416 ] } },
{ "type": "Feature", "properties": { "venue_id": "3f0031d57e36128d33ec67c4", "entity_add": "8051A Dr M.l.k. Jr St N, St. Petersburg, FL", "lat": 27.845765688679773, "lng": -82.64377634988665, "entity_nam": "Party City" }, "geometry": { "type": "Point", "coordinates": [ -82.64377634988665, 27.845765688679773 ] } },
{ "type": "Feature", "properties": { "venue_id": "423bb5ef68f939385566aa51", "entity_add": "2501 West Happy Valley Rd Suite 40-1130, Phoenix, AZ", "lat": 33.708602604015674, "lng": -112.10949114214556, "entity_nam": "Party City" }, "geometry": { "type": "Point", "coordinates": [ -112.109491142145558, 33.708602604015674 ] } },
{ "type": "Feature", "properties": { "venue_id": "41f72646f6c1e4a54e486d33", "entity_add": "526 S Bryant Ave, Edmond, OK", "lat": 35.649537461291544, "lng": -97.459687963641358, "entity_nam": "Party City" }, "geometry": { "type": "Point", "coordinates": [ -97.459687963641358, 35.649537461291544 ] } },
{ "type": "Feature", "properties": { "venue_id": "3d20d6b311caa1931c5322ee", "entity_add": "2850 Wilma Rudolph Blvd, Clarksville, TN", "lat": 36.592994802431221, "lng": -87.293953682958886, "entity_nam": "Party City" }, "geometry": { "type": "Point", "coordinates": [ -87.293953682958886, 36.592994802431221 ] } },
{ "type": "Feature", "properties": { "venue_id": "42ad9ce3b2e9f0a97e5cefd5", "entity_add": "2560 Lemay Ferry Road, St. Louis, MO", "lat": 38.518430210151614, "lng": -90.305077629590699, "entity_nam": "Party City" }, "geometry": { "type": "Point", "coordinates": [ -90.305077629590699, 38.518430210151614 ] } },
{ "type": "Feature", "properties": { "venue_id": "41fd0d01e461aef75b3c8aa0", "entity_add": "4525 Commercial Dr, New Hartford, NY", "lat": 43.08574179035547, "lng": -75.320347211717149, "entity_nam": "Party City" }, "geometry": { "type": "Point", "coordinates": [ -75.320347211717149, 43.08574179035547 ] } },
{ "type": "Feature", "properties": { "venue_id": "405124b546c8cf8839fa6377", "entity_add": "8 Allstate Rd, Dorchester, MA", "lat": 42.327130496902505, "lng": -71.064273257464265, "entity_nam": "Party City" }, "geometry": { "type": "Point", "coordinates": [ -71.064273257464265, 42.327130496902505 ] } },
{ "type": "Feature", "properties": { "venue_id": "42501fb66368c6eb00534467", "entity_add": "12220 Hall Rd, Sterling Heights, MI", "lat": 42.625764477906493, "lng": -83.006599495848889, "entity_nam": "Party City" }, "geometry": { "type": "Point", "coordinates": [ -83.006599495848889, 42.625764477906493 ] } },
{ "type": "Feature", "properties": { "venue_id": "42f73765262c1b2a2794c8d3", "entity_add": "Council Bluffs, IA", "lat": 41.229435282396423, "lng": -95.875820643619974, "entity_nam": "Party City" }, "geometry": { "type": "Point", "coordinates": [ -95.875820643619974, 41.229435282396423 ] } },
{ "type": "Feature", "properties": { "venue_id": "433799527c4f578e7ee5c3c6", "entity_add": "1842 W Lacey Blvd Ave, Hanford, CA", "lat": 36.329623987284748, "lng": -119.67628199609349, "entity_nam": "Party City" }, "geometry": { "type": "Point", "coordinates": [ -119.676281996093493, 36.329623987284748 ] } },
{ "type": "Feature", "properties": { "venue_id": "43208279e4f76efa329343d8", "entity_add": "1805 Pebble Creek Pkwy, Goodyear, AZ", "lat": 33.466868364592585, "lng": -112.38822326026863, "entity_nam": "Party City" }, "geometry": { "type": "Point", "coordinates": [ -112.388223260268632, 33.466868364592585 ] } },
{ "type": "Feature", "properties": { "venue_id": "436a0ddce612e9260608a3e9", "entity_add": "6655 Sawmill Rd, Dublin, OH", "lat": 40.102292386549884, "lng": -83.092504097157004, "entity_nam": "Party City" }, "geometry": { "type": "Point", "coordinates": [ -83.092504097157004, 40.102292386549884 ] } },
{ "type": "Feature", "properties": { "venue_id": "4136a9e875e08474ffddf744", "entity_add": "209 Hartford Ave, Bellingham, MA", "lat": 42.113304404778951, "lng": -71.470696905691625, "entity_nam": "Party City" }, "geometry": { "type": "Point", "coordinates": [ -71.470696905691625, 42.113304404778951 ] } },
{ "type": "Feature", "properties": { "venue_id": "3d7b003172c730e9646b49f8", "entity_add": "2738 W Peoria Ave, Phoenix, AZ", "lat": 33.583278659255711, "lng": -112.11908447462929, "entity_nam": "Party City" }, "geometry": { "type": "Point", "coordinates": [ -112.11908447462929, 33.583278659255711 ] } },
{ "type": "Feature", "properties": { "venue_id": "43b99ecaa6c4cc75fc7b3b1d", "entity_add": "1107 Ridge Rd, Rockwall, TX", "lat": 32.917879755034264, "lng": -96.45896991698487, "entity_nam": "Party City" }, "geometry": { "type": "Point", "coordinates": [ -96.45896991698487, 32.917879755034264 ] } },
{ "type": "Feature", "properties": { "venue_id": "40b2d97c3b9f3cc8c0a770ca", "entity_add": "852 W Arrow Hwy, San Dimas, CA", "lat": 34.103659676453859, "lng": -117.82124079208464, "entity_nam": "Party City" }, "geometry": { "type": "Point", "coordinates": [ -117.821240792084637, 34.103659676453859 ] } },
{ "type": "Feature", "properties": { "venue_id": "44976be8577d3dd05191e89e", "entity_add": "845 Cortez Rd W, Bradenton, FL", "lat": 27.460608125974705, "lng": -82.570800197247252, "entity_nam": "Party City" }, "geometry": { "type": "Point", "coordinates": [ -82.570800197247252, 27.460608125974705 ] } },
{ "type": "Feature", "properties": { "venue_id": "4360a2e4cb81ba0cc6bda368", "entity_add": "72 Consumer Center Dr, Chillicothe, OH", "lat": 39.345907428099117, "lng": -82.979829700264176, "entity_nam": "Party City" }, "geometry": { "type": "Point", "coordinates": [ -82.979829700264176, 39.345907428099117 ] } },
{ "type": "Feature", "properties": { "venue_id": "4431bcb2db10cd8b4edcccda", "entity_add": "14519 Ocean Gate Ave, Hawthorne, CA", "lat": 33.899665434992457, "lng": -118.36831397299997, "entity_nam": "Party City" }, "geometry": { "type": "Point", "coordinates": [ -118.368313972999971, 33.899665434992457 ] } },
{ "type": "Feature", "properties": { "venue_id": "3f6a061c262db3d79f36aff6", "entity_add": "800 Foxcroft Ave, Martinsburg, WV", "lat": 39.45085840880926, "lng": -77.986425441151923, "entity_nam": "Party City" }, "geometry": { "type": "Point", "coordinates": [ -77.986425441151923, 39.45085840880926 ] } },
{ "type": "Feature", "properties": { "venue_id": "48ce3cc88d695612a6727b99", "entity_add": "4047 24th Ave, Fort Gratiot Twp, MI", "lat": 43.026791579487927, "lng": -82.457802431281152, "entity_nam": "Party City" }, "geometry": { "type": "Point", "coordinates": [ -82.457802431281152, 43.026791579487927 ] } },
{ "type": "Feature", "properties": { "venue_id": "30313643d528b9ad7a89950b", "entity_add": "143 Market St, Winchester, VA", "lat": 39.220028401902333, "lng": -78.136649441153907, "entity_nam": "Party City" }, "geometry": { "type": "Point", "coordinates": [ -78.136649441153907, 39.220028401902333 ] } },
{ "type": "Feature", "properties": { "venue_id": "46cc578a8bfb744777cc2ebb", "entity_add": "2935 Los Feliz Blvd, Los Angeles, CA", "lat": 34.125835821653716, "lng": -118.26483104284041, "entity_nam": "Party City" }, "geometry": { "type": "Point", "coordinates": [ -118.264831042840413, 34.125835821653716 ] } },
{ "type": "Feature", "properties": { "venue_id": "42e1ba96c7163f3cd19249a9", "entity_add": "4612 Billingsley Blvd, Midland, TX", "lat": 32.036251183880388, "lng": -102.12624958986143, "entity_nam": "Party City" }, "geometry": { "type": "Point", "coordinates": [ -102.12624958986143, 32.036251183880388 ] } },
{ "type": "Feature", "properties": { "venue_id": "48e7389c29b16e6a530a65e6", "entity_add": "732 E Expressway 83, McAllen, TX", "lat": 26.18585513426752, "lng": -98.211080220608508, "entity_nam": "Party City" }, "geometry": { "type": "Point", "coordinates": [ -98.211080220608508, 26.18585513426752 ] } },
{ "type": "Feature", "properties": { "venue_id": "46f7ac8657433e878cf74f1d", "entity_add": "2500 W Commonwealth Ave, Alhambra, CA", "lat": 34.086137774884122, "lng": -118.15099207739695, "entity_nam": "Party City" }, "geometry": { "type": "Point", "coordinates": [ -118.15099207739695, 34.086137774884122 ] } },
{ "type": "Feature", "properties": { "venue_id": "49048306cef79ca251f867a6", "entity_add": "2637 Lawndale Dr, Greensboro, NC", "lat": 36.102852628950309, "lng": -79.821279493431405, "entity_nam": "Party City" }, "geometry": { "type": "Point", "coordinates": [ -79.821279493431405, 36.102852628950309 ] } },
{ "type": "Feature", "properties": { "venue_id": "4a0022bf8cefb45aabd067da", "entity_add": "8160 Old Troy Pike, Huber Heights, OH", "lat": 39.873737693474965, "lng": -84.133965258852584, "entity_nam": "Party City" }, "geometry": { "type": "Point", "coordinates": [ -84.133965258852584, 39.873737693474965 ] } },
{ "type": "Feature", "properties": { "venue_id": "4bc1c84d36dff6205df85303", "entity_add": "2410 S Broadway, Santa Maria, CA", "lat": 34.916025140654611, "lng": -120.43427657752086, "entity_nam": "Party City" }, "geometry": { "type": "Point", "coordinates": [ -120.434276577520862, 34.916025140654611 ] } },
{ "type": "Feature", "properties": { "venue_id": "4b2b34fc44735f1551ea3cbe", "entity_add": "2301 N Rainbow Blvd, Las Vegas, NV", "lat": 36.20167528856549, "lng": -115.24267050875117, "entity_nam": "Party City" }, "geometry": { "type": "Point", "coordinates": [ -115.242670508751175, 36.20167528856549 ] } },
{ "type": "Feature", "properties": { "venue_id": "481716c732d04a9f4ed01494", "entity_add": "405 N Center St, Westminster, MD", "lat": 39.574876184012084, "lng": -76.981038884915534, "entity_nam": "Party City" }, "geometry": { "type": "Point", "coordinates": [ -76.981038884915534, 39.574876184012084 ] } },
{ "type": "Feature", "properties": { "venue_id": "4b726d1b10de61de922bd294", "entity_add": "4048 Taylorsville Rd, Louisville, KY", "lat": 38.217753733080762, "lng": -85.623224625937084, "entity_nam": "Party City" }, "geometry": { "type": "Point", "coordinates": [ -85.623224625937084, 38.217753733080762 ] } },
{ "type": "Feature", "properties": { "venue_id": "4cb26e6039998f133a3e1423", "entity_add": "3860 S Maryland Pkwy, Las Vegas, NV", "lat": 36.119009446696225, "lng": -115.13560982908285, "entity_nam": "Party City" }, "geometry": { "type": "Point", "coordinates": [ -115.135609829082853, 36.119009446696225 ] } },
{ "type": "Feature", "properties": { "venue_id": "490e2cde8687045cf113457b", "entity_add": "2826 El Camino Real, Tustin, 92782, CA", "lat": 33.723296440839555, "lng": -117.79688686506974, "entity_nam": "Party City" }, "geometry": { "type": "Point", "coordinates": [ -117.796886865069737, 33.723296440839555 ] } },
{ "type": "Feature", "properties": { "venue_id": "4c27c137f8ef27b7c47c8f72", "entity_add": "9150 N Green Bay Rd, Brown Deer, WI", "lat": 43.184475673184522, "lng": -87.961613480190834, "entity_nam": "Party City" }, "geometry": { "type": "Point", "coordinates": [ -87.961613480190834, 43.184475673184522 ] } },
{ "type": "Feature", "properties": { "venue_id": "4cf1a779873a95070cbe8155", "entity_add": "1217 N Military Hwy, Norfolk, VA", "lat": 36.864151908542368, "lng": -76.212366993043233, "entity_nam": "Party City" }, "geometry": { "type": "Point", "coordinates": [ -76.212366993043233, 36.864151908542368 ] } },
{ "type": "Feature", "properties": { "venue_id": "497fc3cc2de227b2c08a43b7", "entity_add": "144 Harbison Blvd, Columbia, SC", "lat": 34.067519067681602, "lng": -81.16305305641022, "entity_nam": "Party City" }, "geometry": { "type": "Point", "coordinates": [ -81.16305305641022, 34.067519067681602 ] } },
{ "type": "Feature", "properties": { "venue_id": "3f7086fd0f797cff9b8ec7e5", "entity_add": "18027 Garden Way NE, Woodinville, WA", "lat": 47.758065235172495, "lng": -122.15644958800586, "entity_nam": "Party City" }, "geometry": { "type": "Point", "coordinates": [ -122.156449588005856, 47.758065235172495 ] } },
{ "type": "Feature", "properties": { "venue_id": "46389e96ab3ee1c26dcfb3bf", "entity_add": "257 N Weber Rd, Bolingbrook, IL", "lat": 41.703820597604526, "lng": -88.130035724536953, "entity_nam": "Party City" }, "geometry": { "type": "Point", "coordinates": [ -88.130035724536953, 41.703820597604526 ] } },
{ "type": "Feature", "properties": { "venue_id": "499a2c152d12cd8ee3e0bfd6", "entity_add": "192 Glen Cove Rd, Carle Place, NY", "lat": 40.746216811323379, "lng": -73.618425661077296, "entity_nam": "Party City" }, "geometry": { "type": "Point", "coordinates": [ -73.618425661077296, 40.746216811323379 ] } },
{ "type": "Feature", "properties": { "venue_id": "4e6d9eb0e2d8c71cb096dbd3", "entity_add": "100 Boston Tpke, Shrewsbury, MA", "lat": 42.273517982147176, "lng": -71.75020501572935, "entity_nam": "Party City" }, "geometry": { "type": "Point", "coordinates": [ -71.75020501572935, 42.273517982147176 ] } },
{ "type": "Feature", "properties": { "venue_id": "4f7b557ae96b1ccc6fcf843d", "entity_add": "1739 Apalachee Pkwy, Tallahassee, FL", "lat": 30.430859534776609, "lng": -84.251030521544564, "entity_nam": "Party City" }, "geometry": { "type": "Point", "coordinates": [ -84.251030521544564, 30.430859534776609 ] } },
{ "type": "Feature", "properties": { "venue_id": "4e86f580028ce52cb935f453", "entity_add": "946 A Orleans Rd, Charleston, SC", "lat": 32.800348382520475, "lng": -80.027973750860099, "entity_nam": "Party City" }, "geometry": { "type": "Point", "coordinates": [ -80.027973750860099, 32.800348382520475 ] } },
{ "type": "Feature", "properties": { "venue_id": "4d7d4cd7993df44c6eb8dfcb", "entity_add": "39210 Fremont Blvd, Fremont, CA", "lat": 37.545654180103007, "lng": -121.98573300345905, "entity_nam": "Party City" }, "geometry": { "type": "Point", "coordinates": [ -121.985733003459046, 37.545654180103007 ] } },
{ "type": "Feature", "properties": { "venue_id": "4e48ea868bf4c8240923f1e4", "entity_add": "300 Andover St, Peabody, MA", "lat": 42.548979586098376, "lng": -70.957281900152935, "entity_nam": "Party City" }, "geometry": { "type": "Point", "coordinates": [ -70.957281900152935, 42.548979586098376 ] } },
{ "type": "Feature", "properties": { "venue_id": "4ad001a963c7da40fceae581", "entity_add": "521 FL-7, Royal Palm Beach, FL", "lat": 26.686367323421219, "lng": -80.203874469886955, "entity_nam": "Party City" }, "geometry": { "type": "Point", "coordinates": [ -80.203874469886955, 26.686367323421219 ] } },
{ "type": "Feature", "properties": { "venue_id": "50f0559cf542359e6bbb74cf", "entity_add": "1180 Nixon Drive, Mount Laurel, NJ", "lat": 39.937424751059595, "lng": -74.963135336899995, "entity_nam": "Party City" }, "geometry": { "type": "Point", "coordinates": [ -74.963135336899995, 39.937424751059595 ] } },
{ "type": "Feature", "properties": { "venue_id": "50de0c8068b2f723b71a065f", "entity_add": "4024 Eastgate Dr, Orlando, FL", "lat": 28.48541644240559, "lng": -81.426041529947071, "entity_nam": "Party City" }, "geometry": { "type": "Point", "coordinates": [ -81.426041529947071, 28.48541644240559 ] } },
{ "type": "Feature", "properties": { "venue_id": "4e3aa96b3bbb688e74ca589b", "entity_add": "11098 Foothill Blvd, Rancho Cucamonga, CA", "lat": 34.107865508543767, "lng": -117.56226689984949, "entity_nam": "Party City" }, "geometry": { "type": "Point", "coordinates": [ -117.56226689984949, 34.107865508543767 ] } },
{ "type": "Feature", "properties": { "venue_id": "4d679a2cd2981564489fc777", "entity_add": "3205 Woodward Crossing Blvd, Buford, GA", "lat": 34.070314859204295, "lng": -83.980699641666277, "entity_nam": "Party City" }, "geometry": { "type": "Point", "coordinates": [ -83.980699641666277, 34.070314859204295 ] } },
{ "type": "Feature", "properties": { "venue_id": "52552180296c72f90dbeed05", "entity_add": "730 US Highway 202, Bridgewater, NJ", "lat": 40.574915003969757, "lng": -74.671153182372194, "entity_nam": "Party City" }, "geometry": { "type": "Point", "coordinates": [ -74.671153182372194, 40.574915003969757 ] } },
{ "type": "Feature", "properties": { "venue_id": "5124a0c9945be6cc36e639fb", "entity_add": "1865 Southpark Blvd, Colonial Heights, VA", "lat": 37.253069643455703, "lng": -77.388683578590047, "entity_nam": "Party City" }, "geometry": { "type": "Point", "coordinates": [ -77.388683578590047, 37.253069643455703 ] } },
{ "type": "Feature", "properties": { "venue_id": "4e86b113e7718a3e6ef6961f", "entity_add": "830 W 78th St, Chanhassen, MN", "lat": 44.863566232322128, "lng": -93.542288920208463, "entity_nam": "Party City" }, "geometry": { "type": "Point", "coordinates": [ -93.542288920208463, 44.863566232322128 ] } },
{ "type": "Feature", "properties": { "venue_id": "5128f1cfdbe8b5199e898d20", "entity_add": "775 W 49th St, Hialeah, FL", "lat": 25.867185991301422, "lng": -80.297590908188994, "entity_nam": "Party City" }, "geometry": { "type": "Point", "coordinates": [ -80.297590908188994, 25.867185991301422 ] } },
{ "type": "Feature", "properties": { "venue_id": "51ae966bba967141201133b5", "entity_add": "7515 W Encanto Blvd, Phoenix, AZ", "lat": 33.472608126989613, "lng": -112.22247423769504, "entity_nam": "Party City" }, "geometry": { "type": "Point", "coordinates": [ -112.222474237695039, 33.472608126989613 ] } },
{ "type": "Feature", "properties": { "venue_id": "541555f5b57b730ab2b62158", "entity_add": "2370 E Semoran Blvd, Apopka, FL", "lat": 28.671035438968474, "lng": -81.466053034285807, "entity_nam": "Party City" }, "geometry": { "type": "Point", "coordinates": [ -81.466053034285807, 28.671035438968474 ] } },
{ "type": "Feature", "properties": { "venue_id": "4fed666d66fd159c917629ea", "entity_add": "530 Bushy Hill Rd, Simsbury, CT", "lat": 41.818321941154551, "lng": -72.863931482632424, "entity_nam": "Party City" }, "geometry": { "type": "Point", "coordinates": [ -72.863931482632424, 41.818321941154551 ] } },
{ "type": "Feature", "properties": { "venue_id": "54028eb261feb2b5310a2d0e", "entity_add": "1659 Texas Ave. South, College Station, 77840, TX", "lat": 30.618081792518094, "lng": -96.319729813844035, "entity_nam": "Party City" }, "geometry": { "type": "Point", "coordinates": [ -96.319729813844035, 30.618081792518094 ] } },
{ "type": "Feature", "properties": { "venue_id": "53b135729087cf823cbcfebe", "entity_add": "2608 Smith Ranch Rd, Pearland, TX", "lat": 29.559614978830506, "lng": -95.385424625407438, "entity_nam": "Party City" }, "geometry": { "type": "Point", "coordinates": [ -95.385424625407438, 29.559614978830506 ] } },
{ "type": "Feature", "properties": { "venue_id": "547c3b1890c449f0b4879503", "entity_add": "2317 New Hyde Park Rd, New Hyde Park, NY", "lat": 40.756826271647071, "lng": -73.689035801288512, "entity_nam": "Party City" }, "geometry": { "type": "Point", "coordinates": [ -73.689035801288512, 40.756826271647071 ] } },
{ "type": "Feature", "properties": { "venue_id": "4f5b2eedf1d8adf866f3dece", "entity_add": "4371 16th St, Moline, IL", "lat": 41.470860261981144, "lng": -90.508182012300125, "entity_nam": "Party City" }, "geometry": { "type": "Point", "coordinates": [ -90.508182012300125, 41.470860261981144 ] } },
{ "type": "Feature", "properties": { "venue_id": "54da6f430e1b7fcdc7918d1b", "entity_add": "1279 Promenade Pl, Eagan, MN", "lat": 44.836513335856516, "lng": -93.155688500443858, "entity_nam": "Party City" }, "geometry": { "type": "Point", "coordinates": [ -93.155688500443858, 44.836513335856516 ] } },
{ "type": "Feature", "properties": { "venue_id": "556e9e19c109d0d32b320ff7", "entity_add": "1255  Raritan Rd, Clark, NJ", "lat": 40.630429396397098, "lng": -74.306033863538417, "entity_nam": "Party City" }, "geometry": { "type": "Point", "coordinates": [ -74.306033863538417, 40.630429396397098 ] } },
{ "type": "Feature", "properties": { "venue_id": "55f44853d4afcbde445a7753", "entity_add": "300 Azalea Rd, Mobile, AL", "lat": 30.673573412588865, "lng": -88.149804770943788, "entity_nam": "Party City" }, "geometry": { "type": "Point", "coordinates": [ -88.149804770943788, 30.673573412588865 ] } },
{ "type": "Feature", "properties": { "venue_id": "548794a70b56c50323b8a8bd", "entity_add": "1790-64 E Market St, Harrisonburg, VA", "lat": 38.433872699298583, "lng": -78.84114378662089, "entity_nam": "Party City" }, "geometry": { "type": "Point", "coordinates": [ -78.84114378662089, 38.433872699298583 ] } },
{ "type": "Feature", "properties": { "venue_id": "4ec990283b6d7ac7c6dad9aa", "entity_add": "1155 Washington Pike, Bridgeville, PA", "lat": 40.369424292887608, "lng": -80.105347539942301, "entity_nam": "Party City" }, "geometry": { "type": "Point", "coordinates": [ -80.105347539942301, 40.369424292887608 ] } },
{ "type": "Feature", "properties": { "venue_id": "5220864994302d2bd4624ff0", "entity_add": "6718 W Greenfield Ave, West Allis, WI", "lat": 43.017938527930333, "lng": -87.996111554892323, "entity_nam": "Party City" }, "geometry": { "type": "Point", "coordinates": [ -87.996111554892323, 43.017938527930333 ] } },
{ "type": "Feature", "properties": { "venue_id": "532bfd00341ec963854d2b61", "entity_add": "1557 W New Haven Ave, Melbourne, FL", "lat": 28.077158558271485, "lng": -80.648123709084985, "entity_nam": "Party City" }, "geometry": { "type": "Point", "coordinates": [ -80.648123709084985, 28.077158558271485 ] } },
{ "type": "Feature", "properties": { "venue_id": "534f67f2515f3a60cb6244f5", "entity_add": "9320 Center Lake Dr, Ste 200, Charlotte, NC", "lat": 35.349528379766632, "lng": -80.855414141407408, "entity_nam": "Party City" }, "geometry": { "type": "Point", "coordinates": [ -80.855414141407408, 35.349528379766632 ] } },
{ "type": "Feature", "properties": { "venue_id": "5319cfde5949aacc6fb9de2a", "entity_add": "17 E Valley Mall Blvd Suite #1, Union Gap, WA", "lat": 46.563680787580026, "lng": -120.47640130376752, "entity_nam": "Party City" }, "geometry": { "type": "Point", "coordinates": [ -120.476401303767517, 46.563680787580026 ] } },
{ "type": "Feature", "properties": { "venue_id": "455b9d84c8db62da3000bb4e", "entity_add": "3140 E Prien Lake Rd, Lake Charles, LA", "lat": 30.19690582668072, "lng": -93.172445877883675, "entity_nam": "Party City" }, "geometry": { "type": "Point", "coordinates": [ -93.172445877883675, 30.19690582668072 ] } },
{ "type": "Feature", "properties": { "venue_id": "58bd865ff9d3c830e3487c07", "entity_add": "4090 Maple Rd, Buffalo, 14226, NY", "lat": 42.993336851237508, "lng": -78.811468653764294, "entity_nam": "Party City" }, "geometry": { "type": "Point", "coordinates": [ -78.811468653764294, 42.993336851237508 ] } },
{ "type": "Feature", "properties": { "venue_id": "59f1406d2c42543886f88714", "entity_add": "3036 New Center Pt, Colorado Springs, CO", "lat": 38.877051200852655, "lng": -104.71773532816226, "entity_nam": "Party City" }, "geometry": { "type": "Point", "coordinates": [ -104.717735328162263, 38.877051200852655 ] } },
{ "type": "Feature", "properties": { "venue_id": "5ba22e4abc015451f78148db", "entity_add": "7600 S Alameda St, Huntington Park, CA", "lat": 33.971154523501596, "lng": -118.23285249480149, "entity_nam": "Party City" }, "geometry": { "type": "Point", "coordinates": [ -118.232852494801492, 33.971154523501596 ] } },
{ "type": "Feature", "properties": { "venue_id": "590783dc998f277622ce6fb4", "entity_add": "2675 Santa Rosa Ave, Santa Rosa, CA", "lat": 38.41276195654882, "lng": -122.71495586815294, "entity_nam": "Party City" }, "geometry": { "type": "Point", "coordinates": [ -122.714955868152941, 38.41276195654882 ] } },
{ "type": "Feature", "properties": { "venue_id": "5a85f68e9c80603b8965ab3a", "entity_add": "23195 W Outer Dr, Allen Park, MI", "lat": 42.278982170030069, "lng": -83.210291962228354, "entity_nam": "Party City" }, "geometry": { "type": "Point", "coordinates": [ -83.210291962228354, 42.278982170030069 ] } },
{ "type": "Feature", "properties": { "venue_id": "5976a58d726aab40a1f05eba", "entity_add": "3801 NW Cache Rd, Lawton, OK", "lat": 34.625752375537637, "lng": -98.441365955367573, "entity_nam": "Party City" }, "geometry": { "type": "Point", "coordinates": [ -98.441365955367573, 34.625752375537637 ] } },
{ "type": "Feature", "properties": { "venue_id": "598bf264b0e1d3390d8bb8dc", "entity_add": "5402 New Hope Commons Dr, Durham, NC", "lat": 35.954837183401665, "lng": -78.99592808541334, "entity_nam": "Party City" }, "geometry": { "type": "Point", "coordinates": [ -78.99592808541334, 35.954837183401665 ] } },
{ "type": "Feature", "properties": { "venue_id": "5d4a2a4830e42b57c3d3f67b", "entity_add": "94-799 Lumiaina St, Waipahu, HI", "lat": 21.4005708930511, "lng": -158.0089854653823, "entity_nam": "Party City" }, "geometry": { "type": "Point", "coordinates": [ -158.008985465382295, 21.4005708930511 ] } },
{ "type": "Feature", "properties": { "venue_id": "58da3072d0252f20833b065c", "entity_add": "40 Altama Village Drive, Brunswick, GA", "lat": 31.204676514369645, "lng": -81.483919242285808, "entity_nam": "Party City" }, "geometry": { "type": "Point", "coordinates": [ -81.483919242285808, 31.204676514369645 ] } },
{ "type": "Feature", "properties": { "venue_id": "5724395d39d233e910b5d010", "entity_add": "12810 Elm Creek Blvd N, Maple Grove, MN", "lat": 45.096803863187532, "lng": -93.443326311279861, "entity_nam": "Party City" }, "geometry": { "type": "Point", "coordinates": [ -93.443326311279861, 45.096803863187532 ] } },
{ "type": "Feature", "properties": { "venue_id": "5c4ef8a8be1098557387f7d9", "entity_add": "2373 Ridge Road West, Rochester, NY", "lat": 43.20832381543152, "lng": -77.691962922668665, "entity_nam": "Party City" }, "geometry": { "type": "Point", "coordinates": [ -77.691962922668665, 43.20832381543152 ] } },
{ "type": "Feature", "properties": { "venue_id": "5cef029965514c7847a5e9f6", "entity_add": "1842 Joe Battle Blvd Ste B, El Paso, TX", "lat": 31.756479464399995, "lng": -106.2650908445959, "entity_nam": "Party City" }, "geometry": { "type": "Point", "coordinates": [ -106.265090844595903, 31.756479464399995 ] } },
{ "type": "Feature", "properties": { "venue_id": "5b0dc866de9ded7f157fb9c8", "entity_add": "2315 4th Ave W, Olympia, WA", "lat": 47.043587925314959, "lng": -122.93073521998416, "entity_nam": "Party City" }, "geometry": { "type": "Point", "coordinates": [ -122.930735219984157, 47.043587925314959 ] } },
{ "type": "Feature", "properties": { "venue_id": "5d7a019501af9235ec8a90d4", "entity_add": "6640 Loisdale Road, Springfield, VA", "lat": 38.774351375569751, "lng": -77.17965434075893, "entity_nam": "Party City" }, "geometry": { "type": "Point", "coordinates": [ -77.17965434075893, 38.774351375569751 ] } },
{ "type": "Feature", "properties": { "venue_id": "5dde74c4a6131a25f4087ed9", "entity_add": "13441 Westheimer Rd, Houston, TX", "lat": 29.734744281070846, "lng": -95.627173045916024, "entity_nam": "Party City" }, "geometry": { "type": "Point", "coordinates": [ -95.627173045916024, 29.734744281070846 ] } },
{ "type": "Feature", "properties": { "venue_id": "5bdf90a849bb79860ca5d3f7", "entity_add": "5760 TN-153, Hixson, TN", "lat": 35.154792159488167, "lng": -85.245650119361613, "entity_nam": "Party City" }, "geometry": { "type": "Point", "coordinates": [ -85.245650119361613, 35.154792159488167 ] } },
{ "type": "Feature", "properties": { "venue_id": "5ddf032e2bce9ba2f2d1264c", "entity_add": "4251 Genesee Ave, San Diego, CA", "lat": 32.822348050576409, "lng": -117.17949303011952, "entity_nam": "Party City" }, "geometry": { "type": "Point", "coordinates": [ -117.179493030119517, 32.822348050576409 ] } },
{ "type": "Feature", "properties": { "venue_id": "5d80710f00d6fc9a56b32476", "entity_add": "9958 York Rd, Cockeysville, MD", "lat": 39.462106000504605, "lng": -76.636991042712737, "entity_nam": "Party City" }, "geometry": { "type": "Point", "coordinates": [ -76.636991042712737, 39.462106000504605 ] } },
{ "type": "Feature", "properties": { "venue_id": "5d779c4001af9210b78a90d6", "entity_add": "23901 E Orchard Rd, Aurora, CO", "lat": 39.60888199621408, "lng": -104.71012597716226, "entity_nam": "Party City" }, "geometry": { "type": "Point", "coordinates": [ -104.710125977162264, 39.60888199621408 ] } },
{ "type": "Feature", "properties": { "venue_id": "5abdf71fcca13d632c994e48", "entity_add": "9420 Sheridan  Boulevard, Westminster, CO", "lat": 39.868163440773102, "lng": -105.05122710221004, "entity_nam": "Party City" }, "geometry": { "type": "Point", "coordinates": [ -105.051227102210035, 39.868163440773102 ] } },
{ "type": "Feature", "properties": { "venue_id": "5887871cb2b793b5d723db7d", "entity_add": "3360 124th Ave NW, Coon Rapids, MN", "lat": 45.194474883181357, "lng": -93.352241323648954, "entity_nam": "Party City" }, "geometry": { "type": "Point", "coordinates": [ -93.352241323648954, 45.194474883181357 ] } },
{ "type": "Feature", "properties": { "venue_id": "5e57cea1d9886e2aad472acf", "entity_add": "5825 SE 15th St, Midwest City, OK", "lat": 35.451827660925886, "lng": -97.420183261663439, "entity_nam": "Party City" }, "geometry": { "type": "Point", "coordinates": [ -97.420183261663439, 35.451827660925886 ] } },
{ "type": "Feature", "properties": { "venue_id": "578349678611355534216a84", "entity_add": "3309 Rosecrans St Ste A, San Diego, CA", "lat": 32.747708386318919, "lng": -117.2069789340849, "entity_nam": "Party City" }, "geometry": { "type": "Point", "coordinates": [ -117.206978934084901, 32.747708386318919 ] } },
{ "type": "Feature", "properties": { "venue_id": "59b6cc3331cf35c3c5f76961", "entity_add": "4533 E Cactus Rd, Phoenix, AZ", "lat": 33.59852675084089, "lng": -111.98587600403573, "entity_nam": "Party City" }, "geometry": { "type": "Point", "coordinates": [ -111.985876004035731, 33.59852675084089 ] } },
{ "type": "Feature", "properties": { "venue_id": "5bc01a2824f8113a4421a124", "entity_add": "1701 Preston Rd, Plano, TX", "lat": 33.022646872020374, "lng": -96.798815597597724, "entity_nam": "Party City" }, "geometry": { "type": "Point", "coordinates": [ -96.798815597597724, 33.022646872020374 ] } },
{ "type": "Feature", "properties": { "venue_id": "5edf9062689cd81aec15e36d", "entity_add": "2220 N Imperial Avenue, El Centro, 92243, CA", "lat": 32.814373413421535, "lng": -115.5716698458816, "entity_nam": "Party City" }, "geometry": { "type": "Point", "coordinates": [ -115.571669845881601, 32.814373413421535 ] } },
{ "type": "Feature", "properties": { "venue_id": "58a592ed6cea0018394528e6", "entity_add": "249 Robert C Daniel Jr Pkwy, Augusta, GA", "lat": 33.488232950421093, "lng": -82.081858392610073, "entity_nam": "Party City" }, "geometry": { "type": "Point", "coordinates": [ -82.081858392610073, 33.488232950421093 ] } },
{ "type": "Feature", "properties": { "venue_id": "5f0dd39c92ada3b2f3d34c63", "entity_add": "9608 S Mason-Montgomery Rd., Mason, OH", "lat": 39.297870824836018, "lng": -84.312383638940886, "entity_nam": "Party City" }, "geometry": { "type": "Point", "coordinates": [ -84.312383638940886, 39.297870824836018 ] } },
{ "type": "Feature", "properties": { "venue_id": "5edf475bbf19a23a61ba2bbb", "entity_add": "5601 Brodie Ln, Austin, TX", "lat": 30.22751707092419, "lng": -97.819198834210965, "entity_nam": "Party City" }, "geometry": { "type": "Point", "coordinates": [ -97.819198834210965, 30.22751707092419 ] } },
{ "type": "Feature", "properties": { "venue_id": "5e7c103c056401273a2b04cb", "entity_add": "20215-20217 Rte 19, Cranberry Township, PA", "lat": 40.686461763773735, "lng": -80.102462891923139, "entity_nam": "Party City" }, "geometry": { "type": "Point", "coordinates": [ -80.102462891923139, 40.686461763773735 ] } },
{ "type": "Feature", "properties": { "venue_id": "5fdb5dbc30ffb30185d4a5f9", "entity_add": "9134 Mentor Ave, Mentor, OH", "lat": 41.674480981032005, "lng": -81.312493949163098, "entity_nam": "Party City" }, "geometry": { "type": "Point", "coordinates": [ -81.312493949163098, 41.674480981032005 ] } },
{ "type": "Feature", "properties": { "venue_id": "60fe2a6a9e931b0797faf465", "entity_add": "7929 Eastern Ave, Baltimore, MD", "lat": 39.295108082435647, "lng": -76.50656926051569, "entity_nam": "Party City" }, "geometry": { "type": "Point", "coordinates": [ -76.50656926051569, 39.295108082435647 ] } },
{ "type": "Feature", "properties": { "venue_id": "60d23d7ee5fad09eb7f0e2d0", "entity_add": "2935 State Hwy K, O'Fallon, MO", "lat": 38.76037342107491, "lng": -90.703726381377749, "entity_nam": "Party City" }, "geometry": { "type": "Point", "coordinates": [ -90.703726381377749, 38.76037342107491 ] } },
{ "type": "Feature", "properties": { "venue_id": "611e730c352c174350d21c46", "entity_add": "3009 Veterans Memorial Blvd, Metairie, LA", "lat": 30.004067870352394, "lng": -90.152996281591001, "entity_nam": "Party City" }, "geometry": { "type": "Point", "coordinates": [ -90.152996281591001, 30.004067870352394 ] } },
{ "type": "Feature", "properties": { "venue_id": "618edc1fdc2762ed96cd2810", "entity_add": "8321 NW Roanridge Rd, Kansas City, MO", "lat": 39.244592012942711, "lng": -94.654408125896424, "entity_nam": "Party City" }, "geometry": { "type": "Point", "coordinates": [ -94.654408125896424, 39.244592012942711 ] } },
{ "type": "Feature", "properties": { "venue_id": "5fdbaf8011be0c1f9a74a70d", "entity_add": "6639 Airport Hwy, Holland, OH", "lat": 41.610489758074586, "lng": -83.698966035092937, "entity_nam": "Party City" }, "geometry": { "type": "Point", "coordinates": [ -83.698966035092937, 41.610489758074586 ] } },
{ "type": "Feature", "properties": { "venue_id": "617415a3e41a532ba9b2b6a3", "entity_add": "2907 Queensgate Dr, Richland, WA", "lat": 46.257437437207486, "lng": -119.31528498822196, "entity_nam": "Party City" }, "geometry": { "type": "Point", "coordinates": [ -119.315284988221961, 46.257437437207486 ] } },
{ "type": "Feature", "properties": { "venue_id": "615f0b0955fdab559e0eb9ae", "entity_add": "346 State Route 10, East Hanover, NJ", "lat": 40.804158139385706, "lng": -74.364495370615913, "entity_nam": "Party City" }, "geometry": { "type": "Point", "coordinates": [ -74.364495370615913, 40.804158139385706 ] } },
{ "type": "Feature", "properties": { "venue_id": "60fd8efd1b5ad377f0eb5a8b", "entity_add": "220 N University Dr, Pembroke Pines, FL", "lat": 26.012043402865441, "lng": -80.249162417173636, "entity_nam": "Party City" }, "geometry": { "type": "Point", "coordinates": [ -80.249162417173636, 26.012043402865441 ] } },
{ "type": "Feature", "properties": { "venue_id": "63509f83cb97b084a309c161", "entity_add": "11860 Hialeah Gardens Blvd, Hialeah Gardens, FL", "lat": 25.881698330048614, "lng": -80.351866921020076, "entity_nam": "Party City" }, "geometry": { "type": "Point", "coordinates": [ -80.351866921020076, 25.881698330048614 ] } },
{ "type": "Feature", "properties": { "venue_id": "5fd85c01f7ebd76db9a46df7", "entity_add": "24800 Brookpark Rd building b, North Olmsted, OH", "lat": 41.419531965027872, "lng": -81.896688888389903, "entity_nam": "Party City" }, "geometry": { "type": "Point", "coordinates": [ -81.896688888389903, 41.419531965027872 ] } },
{ "type": "Feature", "properties": { "venue_id": "62ea1c627ef14bec3caa8637", "entity_add": "5725 Eastex Fwy, Beaumont, TX", "lat": 30.123579216073082, "lng": -94.15390269967142, "entity_nam": "Party City" }, "geometry": { "type": "Point", "coordinates": [ -94.15390269967142, 30.123579216073082 ] } },
{ "type": "Feature", "properties": { "venue_id": "64856a3f3c0437242dc3c6a7", "entity_add": "14160 E Ellsworth Ave, Aurora, CO", "lat": 39.715687067796189, "lng": -104.82318876458612, "entity_nam": "Party City" }, "geometry": { "type": "Point", "coordinates": [ -104.823188764586121, 39.715687067796189 ] } },
{ "type": "Feature", "properties": { "venue_id": "5e477c1854a1c09180d6b10a", "entity_add": "293 Mid Rivers Mall Dr, St Peters, MO", "lat": 38.794890633183073, "lng": -90.624552112645063, "entity_nam": "Party City" }, "geometry": { "type": "Point", "coordinates": [ -90.624552112645063, 38.794890633183073 ] } },
{ "type": "Feature", "properties": { "venue_id": "64c4a260d5b63e9889b82c2d", "entity_add": "4320 W Shaw Ave, Fresno, CA", "lat": 36.809336366490811, "lng": -119.8697456517651, "entity_nam": "Party City" }, "geometry": { "type": "Point", "coordinates": [ -119.869745651765101, 36.809336366490811 ] } },
{ "type": "Feature", "properties": { "venue_id": "5e0dc9c9bbdea87b040afdc7", "entity_add": "South Tunnel Road, Asheville, North Carolina", "lat": 35.581773472263734, "lng": -82.522278193918694, "entity_nam": "Party City" }, "geometry": { "type": "Point", "coordinates": [ -82.522278193918694, 35.581773472263734 ] } },
{ "type": "Feature", "properties": { "venue_id": "5ec7c740df941316e2e85f92", "entity_add": "1107 N Burleson Blvd, Burleson, TX", "lat": 32.566689593878102, "lng": -97.320839973900718, "entity_nam": "Party City" }, "geometry": { "type": "Point", "coordinates": [ -97.320839973900718, 32.566689593878102 ] } },
{ "type": "Feature", "properties": { "venue_id": "5ff15806f0b7ed2bb91c843a", "entity_add": "2708 Southwest Pkwy, Wichita Falls, TX", "lat": 33.859248792547241, "lng": -98.533998737435724, "entity_nam": "Party City" }, "geometry": { "type": "Point", "coordinates": [ -98.533998737435724, 33.859248792547241 ] } },
{ "type": "Feature", "properties": { "venue_id": "64846f75c8e8803e2d9f0324", "entity_add": "1222 Winston Plz, Melrose Park, IL", "lat": 41.905770087480633, "lng": -87.849638652044746, "entity_nam": "Party City" }, "geometry": { "type": "Point", "coordinates": [ -87.849638652044746, 41.905770087480633 ] } },
{ "type": "Feature", "properties": { "venue_id": "65221aac7041a7428792cb44", "entity_add": "2251 S Shore Center, Alameda, CA", "lat": 37.756726884708051, "lng": -122.25032396292183, "entity_nam": "Party City" }, "geometry": { "type": "Point", "coordinates": [ -122.250323962921826, 37.756726884708051 ] } },
{ "type": "Feature", "properties": { "venue_id": "52e2161a8cdc661c85133873", "entity_add": "377 W Jackson St, Cookeville, TN", "lat": 36.156992701169209, "lng": -85.516137109027738, "entity_nam": "Party City" }, "geometry": { "type": "Point", "coordinates": [ -85.516137109027738, 36.156992701169209 ] } },
{ "type": "Feature", "properties": { "venue_id": "6538ca9501b9c1769bd0e464", "entity_add": "10229 Indianapolis Blvd, Highland, IN", "lat": 41.528616611584852, "lng": -87.469085392062269, "entity_nam": "Party City" }, "geometry": { "type": "Point", "coordinates": [ -87.469085392062269, 41.528616611584852 ] } },
{ "type": "Feature", "properties": { "venue_id": "66975b34fdb9eb8ace300157", "entity_add": "6181 Old Dobbin Ln, Columbia, MD", "lat": 39.200737612637596, "lng": -76.8122752960941, "entity_nam": "Party City" }, "geometry": { "type": "Point", "coordinates": [ -76.8122752960941, 39.200737612637596 ] } },
{ "type": "Feature", "properties": { "venue_id": "63c110848d76a39d933d435c", "entity_add": "2560 Gulf Fwy S, League City, TX", "lat": 29.472598423564715, "lng": -95.092860926181984, "entity_nam": "Party City" }, "geometry": { "type": "Point", "coordinates": [ -95.092860926181984, 29.472598423564715 ] } },
{ "type": "Feature", "properties": { "venue_id": "65661418b579ce75bfabce7c", "entity_add": "330 W Oregon Ave, Philadelphia, PA", "lat": 39.912517731649523, "lng": -75.154635929527245, "entity_nam": "Party City" }, "geometry": { "type": "Point", "coordinates": [ -75.154635929527245, 39.912517731649523 ] } },
{ "type": "Feature", "properties": { "venue_id": "66bedb3eb80082ffb21d396e", "entity_add": "10650 NW 19th St, Doral, FL", "lat": 25.791101017473284, "lng": -80.367020619958566, "entity_nam": "Party City" }, "geometry": { "type": "Point", "coordinates": [ -80.367020619958566, 25.791101017473284 ] } },
{ "type": "Feature", "properties": { "venue_id": "64d714d8a52b85c567b182e2", "entity_add": "27029 Mcbean Pkwy, Santa Clarita, CA", "lat": 34.421681947997882, "lng": -118.56499035126507, "entity_nam": "Party City" }, "geometry": { "type": "Point", "coordinates": [ -118.564990351265067, 34.421681947997882 ] } },
{ "type": "Feature", "properties": { "venue_id": "669c4e7c2b59fd62f9bee239", "entity_add": "8222 S Yosemite St, Centennial, CO", "lat": 39.567595459432027, "lng": -104.88511762629983, "entity_nam": "Party City" }, "geometry": { "type": "Point", "coordinates": [ -104.885117626299831, 39.567595459432027 ] } },
{ "type": "Feature", "properties": { "venue_id": "66e5e91497558df8fe47d162", "entity_add": "863 Blossom Hill Rd, San Jose, CA", "lat": 37.251237179125233, "lng": -121.85688419162874, "entity_nam": "Party City" }, "geometry": { "type": "Point", "coordinates": [ -121.856884191628737, 37.251237179125233 ] } },
{ "type": "Feature", "properties": { "venue_id": "665639a7e6c96e4906cdd00c", "entity_add": "2201 Cottman Ave, Philadelphia, PA", "lat": 40.049727081456901, "lng": -75.061369635442915, "entity_nam": "Party City" }, "geometry": { "type": "Point", "coordinates": [ -75.061369635442915, 40.049727081456901 ] } },
{ "type": "Feature", "properties": { "venue_id": "673629d676b7b46f3e5ed3aa", "entity_add": "2100 Henderson Mill Rd NE, Tucker, GA", "lat": 33.845937135041773, "lng": -84.257156339551429, "entity_nam": "Party City" }, "geometry": { "type": "Point", "coordinates": [ -84.257156339551429, 33.845937135041773 ] } },
{ "type": "Feature", "properties": { "venue_id": "67742cfabe600aa3b1a57b15", "entity_add": "821 N Dobson Rd, Mesa, AZ", "lat": 33.431662898310009, "lng": -111.87133529016592, "entity_nam": "Party City" }, "geometry": { "type": "Point", "coordinates": [ -111.871335290165916, 33.431662898310009 ] } },
{ "type": "Feature", "properties": { "venue_id": "5b4aa8f2d14a898ba5560f64", "entity_add": "2172 Sir Barton Way, Lexington, KY", "lat": 38.021840003036999, "lng": -84.419277964154219, "entity_nam": "Party City" }, "geometry": { "type": "Point", "coordinates": [ -84.419277964154219, 38.021840003036999 ] } },
{ "type": "Feature", "properties": { "venue_id": "67ef8f0e0cea93d2447d4370", "entity_add": "3911 Oakwood Blvd, Hollywood, FL", "lat": 26.045581056403236, "lng": -80.158611588587888, "entity_nam": "Party City" }, "geometry": { "type": "Point", "coordinates": [ -80.158611588587888, 26.045581056403236 ] } },
{ "type": "Feature", "properties": { "venue_id": "67fde13ee38e1be4b913c8d2", "entity_add": "163 Witchwood Dr, North Wales, PA", "lat": 40.225470162538599, "lng": -75.240869892569378, "entity_nam": "Party City" }, "geometry": { "type": "Point", "coordinates": [ -75.240869892569378, 40.225470162538599 ] } },
{ "type": "Feature", "properties": { "venue_id": "6615af75989d2419b77bd634", "entity_add": "3959 2nd St S, Saint Cloud, MN", "lat": 45.551391821392571, "lng": -94.20651375681696, "entity_nam": "Party City" }, "geometry": { "type": "Point", "coordinates": [ -94.20651375681696, 45.551391821392571 ] } },
{ "type": "Feature", "properties": { "venue_id": "5f64111a569a34f85a436a52", "entity_add": "534 Shaw Ave, Clovis, CA", "lat": 36.807313582505586, "lng": -119.70318125696672, "entity_nam": "Party City" }, "geometry": { "type": "Point", "coordinates": [ -119.703181256966715, 36.807313582505586 ] } },
{ "type": "Feature", "properties": { "venue_id": "6a2dc958f4a2fadd46938123", "entity_add": "145 Galleria Dr, Cheektowaga, NY", "lat": 42.915554924811055, "lng": -78.755373079998691, "entity_nam": "Party City" }, "geometry": { "type": "Point", "coordinates": [ -78.755373079998691, 42.915554924811055 ] } },
{ "type": "Feature", "properties": { "venue_id": "69d0aa36fe56e00f728b4d46", "entity_add": "2565 E 80th Ave, Merrillville, IN", "lat": 41.4717107118109, "lng": -87.304880161205773, "entity_nam": "Party City" }, "geometry": { "type": "Point", "coordinates": [ -87.304880161205773, 41.4717107118109 ] } },
{ "type": "Feature", "properties": { "venue_id": "6b2422bb1878ce9a4a41895e", "entity_add": "5946 E Sam Houston Pkwy N, Houston, TX", "lat": 29.811703265639871, "lng": -95.161679104055139, "entity_nam": "Party City" }, "geometry": { "type": "Point", "coordinates": [ -95.161679104055139, 29.811703265639871 ] } },
{ "type": "Feature", "properties": { "venue_id": "6a40c4ce6671284299747d7b", "entity_add": "1745 St Lucie W Blvd, Port St. Lucie, FL", "lat": 27.314700188935038, "lng": -80.406222953036561, "entity_nam": "Party City" }, "geometry": { "type": "Point", "coordinates": [ -80.406222953036561, 27.314700188935038 ] } },
{ "type": "Feature", "properties": { "venue_id": "6ac47931e3eff4e93cf6b47c", "entity_add": "31417 Pacific Hwy S, Federal Way, WA", "lat": 47.320472348808835, "lng": -122.31548407350596, "entity_nam": "Party City" }, "geometry": { "type": "Point", "coordinates": [ -122.315484073505957, 47.320472348808835 ] } },
{ "type": "Feature", "properties": { "venue_id": "6aead31b2067ecc1e83f4f50", "entity_add": "1001 Bay Area Blvd., Webster, TX", "lat": 29.541114391156214, "lng": -95.136706487831404, "entity_nam": "Party City" }, "geometry": { "type": "Point", "coordinates": [ -95.136706487831404, 29.541114391156214 ] } },
{ "type": "Feature", "properties": { "venue_id": "6a6cc13033426d0ae626bf09", "entity_add": "3686 E Franklin Blvd, Gastonia, NC", "lat": 35.260918390921631, "lng": -81.11513076924841, "entity_nam": "Party City" }, "geometry": { "type": "Point", "coordinates": [ -81.11513076924841, 35.260918390921631 ] } },
{ "type": "Feature", "properties": { "venue_id": "640c136b0cab417b0ee6c526", "entity_add": "32351 John R Rd, Troy, MI", "lat": 42.530959701922271, "lng": -83.109283746869551, "entity_nam": "Party City" }, "geometry": { "type": "Point", "coordinates": [ -83.109283746869551, 42.530959701922271 ] } },
{ "type": "Feature", "properties": { "venue_id": "68738d0b99cbef6fb0735608", "entity_add": "370 Ridge Way, Flowood, MS", "lat": 32.341396328566688, "lng": -90.065590471866471, "entity_nam": "Party City" }, "geometry": { "type": "Point", "coordinates": [ -90.065590471866471, 32.341396328566688 ] } },
{ "type": "Feature", "properties": { "venue_id": "6ab09cd0cd57044259ff3640", "entity_add": "7054 Siegen Ln, Baton Rouge, LA", "lat": 30.385978196195868, "lng": -91.065825350087451, "entity_nam": "Party City" }, "geometry": { "type": "Point", "coordinates": [ -91.065825350087451, 30.385978196195868 ] } },
{ "type": "Feature", "properties": { "venue_id": "6b1dad5b8b2511900dc7b183", "entity_add": "863 Dawsonville Highway, Gainesville, GA", "lat": 34.295684697434126, "lng": -83.859075334572225, "entity_nam": "Party City" }, "geometry": { "type": "Point", "coordinates": [ -83.859075334572225, 34.295684697434126 ] } },
{ "type": "Feature", "properties": { "venue_id": "6bd9f088336412bb17531186", "entity_add": "36315 Euclid Ave, Willoughby, OH", "lat": 41.628990942989098, "lng": -81.428978706433568, "entity_nam": "Party City" }, "geometry": { "type": "Point", "coordinates": [ -81.428978706433568, 41.628990942989098 ] } },
{ "type": "Feature", "properties": { "venue_id": "5df74d65d515e6fec363bd3d", "entity_add": "831 S Military Ave, Green Bay, WI", "lat": 44.520765250917648, "lng": -88.062211152451113, "entity_nam": "Party City" }, "geometry": { "type": "Point", "coordinates": [ -88.062211152451113, 44.520765250917648 ] } },
{ "type": "Feature", "properties": { "venue_id": "6c89b8387612adc30926e9fb", "entity_add": "11375 Lincoln Hwy, Mokena, IL", "lat": 41.502740951355491, "lng": -87.891638232891211, "entity_nam": "Party City" }, "geometry": { "type": "Point", "coordinates": [ -87.891638232891211, 41.502740951355491 ] } },
{ "type": "Feature", "properties": { "venue_id": "6d72c5d87651e9d68d358c92", "entity_add": "2855 Market Pl, Salina, KS", "lat": 38.786958129853446, "lng": -97.611675739839015, "entity_nam": "Party City" }, "geometry": { "type": "Point", "coordinates": [ -97.611675739839015, 38.786958129853446 ] } },
{ "type": "Feature", "properties": { "venue_id": "6c2677abf9bb765ebfdbafd4", "entity_add": "1684 Route 22 E, Watchung, NJ", "lat": 40.64683017936995, "lng": -74.407529874099509, "entity_nam": "Party City" }, "geometry": { "type": "Point", "coordinates": [ -74.407529874099509, 40.64683017936995 ] } },
{ "type": "Feature", "properties": { "venue_id": "69d5b28d7c68cbc33a33ce5b", "entity_add": "1549 Forest Ave, Staten Island, NY", "lat": 40.625734053149813, "lng": -74.138992229268794, "entity_nam": "Party City" }, "geometry": { "type": "Point", "coordinates": [ -74.138992229268794, 40.625734053149813 ] } },
{ "type": "Feature", "properties": { "venue_id": "6c7ffb3cc5ad6ac42cc5e16b", "entity_add": "1548 S Randall Rd, Geneva, IL", "lat": 41.872559714397667, "lng": -88.342873452264584, "entity_nam": "Party City" }, "geometry": { "type": "Point", "coordinates": [ -88.342873452264584, 41.872559714397667 ] } },
{ "type": "Feature", "properties": { "venue_id": "6f0b3d194a14cc6a023c79f6", "entity_add": "3410 Highland Ave, National City, CA", "lat": 32.651152925768024, "lng": -117.08972979788614, "entity_nam": "Party City" }, "geometry": { "type": "Point", "coordinates": [ -117.089729797886136, 32.651152925768024 ] } },
{ "type": "Feature", "properties": { "venue_id": "6bb7db082eece32e5f7b3882", "entity_add": "1456 MacArthur Dr, Alexandria, LA", "lat": 31.282667141198814, "lng": -92.475313200704306, "entity_nam": "Party City" }, "geometry": { "type": "Point", "coordinates": [ -92.475313200704306, 31.282667141198814 ] } },
{ "type": "Feature", "properties": { "venue_id": "6e8f85c611f800040e0e292d", "entity_add": "MacArthur Town Centre 2536, Whitehall, PA", "lat": 40.64318138379133, "lng": -75.494550918602002, "entity_nam": "Party City" }, "geometry": { "type": "Point", "coordinates": [ -75.494550918602002, 40.64318138379133 ] } },
{ "type": "Feature", "properties": { "venue_id": "6a8788a61c1349366993ecba", "entity_add": "3090 Mountain View Drive, Anchorage, 99501, AK", "lat": 61.22084577862352, "lng": -149.815575072608, "entity_nam": "Party City" }, "geometry": { "type": "Point", "coordinates": [ -149.815575072607999, 61.22084577862352 ] } },
{ "type": "Feature", "properties": { "venue_id": "7006ceb3c84e208c7854252b", "entity_add": "5544 Stockdale Hwy, Bakersfield, CA", "lat": 35.355337153304163, "lng": -119.0632411610385, "entity_nam": "Party City" }, "geometry": { "type": "Point", "coordinates": [ -119.063241161038505, 35.355337153304163 ] } },
{ "type": "Feature", "properties": { "venue_id": "6b69973a4b4b03606083caad", "entity_add": "157 S Las Posas Rd, San Marcos, CA", "lat": 33.139101101497559, "lng": -117.19032946732186, "entity_nam": "Party City" }, "geometry": { "type": "Point", "coordinates": [ -117.19032946732186, 33.139101101497559 ] } },
{ "type": "Feature", "properties": { "venue_id": "704aa7ea6da85e164e05e535", "entity_add": "9210 Rosedale Hwy, Bakersfield, CA", "lat": 35.385827532896826, "lng": -119.10458234096092, "entity_nam": "Party City" }, "geometry": { "type": "Point", "coordinates": [ -119.104582340960917, 35.385827532896826 ] } },
{ "type": "Feature", "properties": { "venue_id": "702aa9b157d4489dc5d70a9d", "entity_add": "2817 E 3rd St, Bloomington, IN", "lat": 39.165877402590603, "lng": -86.495417419576285, "entity_nam": "Party City" }, "geometry": { "type": "Point", "coordinates": [ -86.495417419576285, 39.165877402590603 ] } },
{ "type": "Feature", "properties": { "venue_id": "701d1d090de3f7d0bcb5563c", "entity_add": "591 Memorial Dr, Chicopee, MA", "lat": 42.175204524747777, "lng": -72.572172239490101, "entity_nam": "Party City" }, "geometry": { "type": "Point", "coordinates": [ -72.572172239490101, 42.175204524747777 ] } },
{ "type": "Feature", "properties": { "venue_id": "6feb4baec707c47b6e28149b", "entity_add": "4826 SW Loop 820, Fort Worth, TX", "lat": 32.685058050781507, "lng": -97.397661155518648, "entity_nam": "Party City" }, "geometry": { "type": "Point", "coordinates": [ -97.397661155518648, 32.685058050781507 ] } },
{ "type": "Feature", "properties": { "venue_id": "705e82255032cc0aeaadd9c5", "entity_add": "29800 Southfield Rd, Southfield, MI", "lat": 42.509122970217284, "lng": -83.220876299034543, "entity_nam": "Party City" }, "geometry": { "type": "Point", "coordinates": [ -83.220876299034543, 42.509122970217284 ] } },
{ "type": "Feature", "properties": { "venue_id": "70ac6026b90726246575307c", "entity_add": "58 Veterans Memorial Hwy, Commack, NY", "lat": 40.84055696712182, "lng": -73.286429798415867, "entity_nam": "Party City" }, "geometry": { "type": "Point", "coordinates": [ -73.286429798415867, 40.84055696712182 ] } },
{ "type": "Feature", "properties": { "venue_id": "712bbe35464c0927bfbb3d52", "entity_add": "4141 Sunset Dr, San Angelo, TX", "lat": 31.430207389453383, "lng": -100.50077858341996, "entity_nam": "Party City" }, "geometry": { "type": "Point", "coordinates": [ -100.500778583419958, 31.430207389453383 ] } },